업체명,품목명,주소,대표전화번호,시도명,시군구명,경도,위도
서서울농협하나로마트사직점,식품가스 등,서울특별시 종로구 사직로8길 4 ,02-725-4021,서울특별시,종로구,126.9684298,37.57467165
이마트 청계천점,생필품,서울특별시 중구 청계천로 400,02-2290-1050,서울특별시,중구,127.0214639,37.57081055
이마트 용산점,양곡 및 생필품,서울특별시 용산구 한강대로23길 55,02-2012-1050,서울특별시,용산구,126.9647415,37.5297718
농협하나로클럽 용산점,양곡 및 생필품,서울특별시 용산구 청파로 122,02-2077-2812,서울특별시,용산구,126.964733,37.53317461
동명할인마트,"생수,쌀,부식류,부탄가스,살균표백제,즉석식품,분유세트,기저귀,모기약등",서울특별시 성동구 마장로 193,02-2291-9989,서울특별시,성동구,127.0312519,37.56681866
부부슈퍼,"생수,쌀,부식류,부탄가스,살균표백제,즉석식품,분유세트,기저귀,모기약등",서울특별시 성동구 무학봉길87-1,02-2294-8428,서울특별시,성동구,127.0318355,37.56206575
세림무지개마트,"생수,쌀,부식류,부탄가스,살균표백제,즉석식품,분유세트,기저귀,모기약등",서울특별시 성동구 마장로42길14 B01호,02-2295-0638,서울특별시,성동구,127.0452562,37.56590754
우리마트,"생수,쌀,부식류,부탄가스,살균표백제,즉석식품,분유세트,기저귀,모기약등",서울특별시 성동구 사근동길 58,02-2293-5549,서울특별시,성동구,127.0473891,37.56080608
하나로마트행당점,"생수,쌀,부식류,부탄가스,살균표백제,즉석식품,분유세트,기저귀,모기약등",서울특별시 성동구 행당로 87,02-2297-7766,서울특별시,성동구,127.0285443,37.55729212
하모니마트,"생수,쌀,부식류,부탄가스,살균표백제,즉석식품,분유세트,기저귀,모기약등",서울특별시 성동구 독서당로62길43,02-2293-0622,서울특별시,성동구,127.0335265,37.55190095
금호마트,"생수,쌀,부식류,부탄가스,살균표백제,즉석식품,분유세트,기저귀,모기약등",서울특별시 성동구 금호산길 67,02-2236-2848,서울특별시,성동구,127.0195076,37.55434364
G-마트,"생수,쌀,부식류,부탄가스,살균표백제,즉석식품,분유세트,기저귀,모기약등",서울특별시 성동구 무수막길80,02-2253-2442,서울특별시,성동구,127.0207336,37.55289841
중앙할인마트,"생수,쌀,부식류,부탄가스,살균표백제,즉석식품,분유세트,기저귀,모기약등",서울특별시 성동구 독서당로 302,02-2294-9114,서울특별시,성동구,127.0227309,37.54761108
㈜뚝섬현대유통,"생수,쌀,부식류,부탄가스,살균표백제,즉석식품,분유세트,기저귀,모기약등",서울특별시 성동구 성덕정길29,02-463-2211,서울특별시,성동구,127.0470184,37.53919037
쌍용수퍼렛,"생수,쌀,부식류,부탄가스,살균표백제,즉석식품,분유세트,기저귀,모기약등",서울특별시 성동구 상원길 59 B동 107호 ,02-463-6988,서울특별시,성동구,127.0478884,37.54929959
롯데슈퍼성수점,"생수,쌀,부식류,부탄가스,살균표백제,즉석식품,분유세트,기저귀,모기약등",서울특별시 성동구 아차산로7길 28,02-461-5601,서울특별시,성동구,127.0553768,37.54754415
럭키수퍼,"생수,쌀,부식류,부탄가스,살균표백제,즉석식품,분유세트,기저귀,모기약등",서울특별시 성동구 광나루로 11길 28,02-498-0069,서울특별시,성동구,127.0671343,37.55024816
DS로지스,"생수,쌀,부식류,부탄가스,살균표백제,즉석식품,분유세트,기저귀,모기약등",서울특별시 성동구 용답23길 20-1 (용답동),02-2245-4929,서울특별시,성동구,127.0540371,37.56235519
이마트 자양점,생필품,서울특별시 광진구 아차산로 272,02-3425-3323,서울특별시,광진구,127.0729962,37.53855827
롯데마트 강변점,생필품,서울특별시 광진구 광나루로 56길 85,02-3424-2506,서울특별시,광진구,127.0956922,37.53572518
홈플러스 구의점,생필품,서울특별시 광진구 자양로 168,02-2201-8545,서울특별시,광진구,127.0846048,37.54263602
홈플러스 구의2점,생필품,서울특별시 광진구 아차산로 473,02-458-8545,서울특별시,광진구,127.0942835,37.54051873
롯데슈퍼마켓 구의점,생필품,서울특별시 광진구 아차산로 450,02-452-5601,서울특별시,광진구,127.0923386,37.53851203
롯데슈퍼마켓 중곡점,생필품,서울특별시 광진구 긴고랑로 60,02-453-5604,서울특별시,광진구,127.0826856,37.56188161
그린팜마트,"생수,쌀,부식류,부탄가스, 분유세트,기저귀,모기약 등",서울특별시 동대문구 왕산로 108,02-969-4040,서울특별시,동대문구,127.0352645,37.57777976
부산상회,"생수,쌀,부식류,부탄가스, 분유세트,기저귀,모기약 등",서울특별시 동대문구 경동시장로10길 12,02-963-1440,서울특별시,동대문구,127.0413525,37.5812139
양평할인공판장,"생수,쌀,부식류,부탄가스, 분유세트,기저귀,모기약 등",서울특별시 동대문구 서울시립대로7길 8,02-2212-6662,서울특별시,동대문구,127.0481444,37.57739391
롯데슈퍼,"생수,쌀,부식류,부탄가스, 분유세트,기저귀,모기약 등",서울특별시 동대문구 사가정로 148,02-2248-8361,서울특별시,동대문구,127.0615677,37.57665904
우일슈퍼,"생수,쌀,부식류,부탄가스, 분유세트,기저귀,모기약 등",서울특별시 동대문구 사가정로 37,070-7518-7546,서울특별시,동대문구,127.0512514,37.57265571
참조은마트,"생수,쌀,부식류,부탄가스, 분유세트,기저귀,모기약 등",서울특별시 동대문구 전농로 44,02-2246-0070,서울특별시,동대문구,127.057386,37.56866202
싱싱할인마트,"생수,쌀,부식류,부탄가스, 분유세트,기저귀,모기약 등",서울특별시 동대문구 답십리로66길 87,02-2215-9033,서울특별시,동대문구,127.0665848,37.56885955
전곡할인마트,"생수,쌀,부식류,부탄가스, 분유세트,기저귀,모기약 등",서울특별시 동대문구 한천로 190,02-2247-7879,서울특별시,동대문구,127.068569,37.57789377
웰빙마트,"생수,쌀,부식류,부탄가스, 분유세트,기저귀,모기약 등",서울특별시 동대문구 제기로 132,02-969-8600,서울특별시,동대문구,127.0477983,37.58630596
GS25,"생수,쌀,부식류,부탄가스, 분유세트,기저귀,모기약 등",서울특별시 동대문구 회기로25길 23,02-967-7029,서울특별시,동대문구,127.0556719,37.5912085
충주상회,"생수,쌀,부식류,부탄가스, 분유세트,기저귀,모기약 등",서울특별시 동대문구 외대역동로1길 24,02-2216-0552,서울특별시,동대문구,127.0634709,37.59180913
서흥하이퍼마켓,"생수,쌀,부식류,부탄가스, 분유세트,기저귀,모기약 등",서울특별시 동대문구 망우로16길 20,02-2245-3351,서울특별시,동대문구,127.060972,37.58936957
GS외대휘경점,"생수,쌀,부식류,부탄가스, 분유세트,기저귀,모기약 등",서울특별시 동대문구 휘경로 30,02-957-2522,서울특별시,동대문구,127.063267,37.59491351
럭키할인마트,"생수,쌀,부식류,부탄가스, 분유세트,기저귀,모기약 등",서울특별시 동대문구 신이문로 27,02-967-7678,서울특별시,동대문구,127.065295,37.60315837
홈플러스면목점,생필품,서울특별시 중랑구 면목천로 33,02-439-2045,서울특별시,중랑구,127.081208,37.57920868
이마트상봉점,생필품,서울특별시 중랑구 상봉로 118,02-490-1234,서울특별시,중랑구,127.0936085,37.59646765
이마트묵동점,생필품,서울특별시 중랑구 동일로932,02-2094-1234,서울특별시,중랑구,127.0775571,37.61383938
홈플러스신내점,생필품,서울특별시 중랑구 신내로 201,02-2024-8124,서울특별시,중랑구,127.0935974,37.61598391
홈플러스상봉점,생필품,서울특별시 중랑구 망우로 353,02-6922-8100,서울특별시,중랑구,127.0916241,37.59833282
롯데슈퍼,"생필품, 생수,쌀,부식류,부탄가스, 분유세트,기저귀,모기약 등",서울특별시 중랑구 겸재로9길23,02-432-3043,서울특별시,중랑구,127.0781696,37.58746419
하모니마트 면목점,"생수, 쌀, 기타생필품",서울특별시 중랑구 면목로 48길 39,02-2207-5785,서울특별시,중랑구,127.0908934,37.58220932
면목공판장,"생수,쌀,부식류,부탄가스, 분유세트,기저귀,모기약 등",서울특별시 중랑구 면목로30길 7,02-436-1401,서울특별시,중랑구,127.0861882,37.57593941
유마트,"생수,쌀,부식류,부탄가스, 분유세트,기저귀,모기약 등",서울특별시 중랑구 면목로35길 9,02-494-0016,서울특별시,중랑구,127.0853445,37.57806403
현대홈마트,생필품,서울특별시 중랑구 상봉중앙로 57,02-434-5551,서울특별시,중랑구,127.0871065,37.60236916
복지할인마트,"쌀, 생수,기타 생필품",서울특별시 중랑구 동일로 796 ,02-496-8366,서울특별시,중랑구,127.0798673,37.60137391
정나눔마트,생활용품,서울특별시 중랑구 봉화산로3길 59,02-437-7077,서울특별시,중랑구,127.0754298,37.60422063
더브러마트,"쌀, 생수, 기타 생필품",서울특별시 중랑구 공릉로2길31,02-971-8332,서울특별시,중랑구,127.0797513,37.61223218
롯데수퍼 묵동점,"생수, 쌀, 부식류, 부탄가스, 표백제 등",서울특별시 중랑구 동일로 887,02-949-6401,서울특별시,중랑구,127.0776393,37.60950638
농협하나로마트(망우점),"쌀, 생수, 기타 생필품",서울특별시 중랑구 용마산로118길 94,02-433-8022,서울특별시,중랑구,127.1056963,37.60106367
용마공판장,"생수, 쌀, 부식류, 부탄가스, 분유세트, 기저귀, 모기약 등",서울특별시 중랑구 용마공원로 38,02-435-4373,서울특별시,중랑구,127.1017726,37.59237841
수협바다마트,"식품, 잡화 전품목",서울특별시 중랑구 신내로14길 21,02-3723-0100,서울특별시,중랑구,127.097148,37.60612377
농협하나로마트(신내점),"생수, 쌀, 부탄가스, 분유, 젖병, 부식류, 즉석식품 등 ",서울특별시 중랑구 신내로 74,02-493-3080,서울특별시,중랑구,127.0956568,37.60593037
G마트,생필품,서울특별시 강북구 한천로144길 12,02-990-2165,서울특별시,강북구,127.0257417,37.64155352
롯데마트삼양점,생필품,서울특별시 강북구 삼양로 247,02-944-1520,서울특별시,강북구,127.017747,37.62551826
롯데마트수유점,생필품,서울특별시 강북구 도봉로67길 18 ,02-981-5601,서울특별시,강북구,127.0226681,37.63072891
하나로마트 창동점,생필품,서울특별시 도봉구 마들로11길 20 ,02-3499-6121,서울특별시,도봉구,127.0508313,37.65511059
(주)이마트 월계점,"생수 ,쌀, 부식류, 부탄가스, 살균표백제, 즉석식품 등",서울특별시 노원구 마들로3길15,02-2092-1051,서울특별시,노원구,127.0619798,37.62650936
진흥마켓,"생수, 쌀, 부탄가스, 분유",서울특별시 은평구 은평로 203,02-385-0044,서울특별시,은평구,126.9303141,37.60199466
지마트,생필품,서울특별시 서대문구 연희로 245,02-325-8249,서울특별시,서대문구,126.9357502,37.57900001
현대그린마트,생필품,서울특별시 서대문구 통일로 201-1,02-364-5433,서울특별시,서대문구,126.9609805,37.5711833
스타슈퍼,생필품,서울특별시 서대문구 북아현로 62,02-363-3230,서울특별시,서대문구,126.9554017,37.56286828
신촌오렌지마트,생필품,서울특별시 서대문구 이화여대길 50-12,02-365-8245,서울특별시,서대문구,126.9465196,37.55945396
신라마트,생필품,서울특별시 서대문구 북아현로 4길 9-2,02-313-8115,서울특별시,서대문구,126.9573591,37.5593061
연세마트,생필품,서울특별시 서대문구 홍연8길 3,02-332-4799,서울특별시,서대문구,126.9313614,37.57665108
진성할인마트,생필품,서울특별시 서대문구 간호대로 20,02-391-8884,서울특별시,서대문구,126.9481337,37.59692937
마당쇠 할인마트,생필품,서울특별시 서대문구 홍은중앙로 81,02-395-9663,서울특별시,서대문구,126.9466455,37.59845165
하나마트,생필품,서울특별시 서대문구 모래내로 352-3,02-395-5600,서울특별시,서대문구,126.9356478,37.58111071
진성마트,생필품,서울특별시 서대문구 증가로10길 16-41,02-302-4980,서울특별시,서대문구,126.9240702,37.57806676
에덴할인마트,생필품,서울특별시 서대문구 증가로25길 33,02-375-2820,서울특별시,서대문구,126.9125377,37.58083267
서서울농협하나로마트(서강점),"생수, 쌀 등 식품류, 생활용품 ",서울특별시 마포구 창전로 45 서강한화오벨리스크,02-3144-5253,서울특별시,마포구,126.9320035,37.54686334
합정마트(합정역),"생수, 쌀 등 식품류, 생활용품 ","서울특별시 마포구 양화진길5, 합정아파트",02-334-6323,서울특별시,마포구,126.9131863,37.54821115
서민구판장(망원역),"생수, 쌀 등 식품류, 생활용품 ",서울특별시 마포구 망원로8길 43,02-335-2494,서울특별시,마포구,126.9065034,37.55558441
다농마트(마포농수산물센터),"생수, 쌀 등 식품류, 생활용품 ",서울특별시 마포구 월드컵로 211,02-303-9893,서울특별시,마포구,126.9010205,37.5652625
홈플러스 목동점,"생수, 쌀 등 식품류, 생활용품 ",서울특별시 양천구 목동서로 170,02-2644-2080,서울특별시,양천구,126.8733001,37.53024475
이마트 신월점,"생수, 쌀 등 식품류, 생활용품 ",서울특별시 양천구 화곡로 59,02-6716-1240,서울특별시,양천구,126.8285152,37.53975584
경서농협하나로마트 신정점,"생수, 쌀 등 식품류, 생활용품 ",서울특별시 양천구 신월로 313,02-2696-8012,서울특별시,양천구,126.8556546,37.5218724
이마트가양점,"생수, 쌀 등 식품류, 생활용품 ",서울특별시 강서구 양천로 559,02-2101-1053,서울특별시,강서구,126.8618176,37.55819481
홈플러스 강서점,"생수, 쌀 등 식품류, 생활용품 ",서울특별시 강서구 화곡로 398,02-2660-8000,서울특별시,강서구,126.854819,37.55846996
강서농업협동조합,"생수, 쌀 등 식품류, 생활용품 ",서울특별시 강서구 금낭화로 127,02-2669-6153,서울특별시,강서구,126.8121967,37.57679087
롯데마트구로점,"생수, 쌀 등 식품류, 생활용품 ",서울특별시 구로구 경인로482,02-2639-2521,서울특별시,구로구,126.8727311,37.49828789
이마트구로점,"생수, 쌀 등 식품류, 생활용품 ",서울특별시 구로구 디지털로32길43,02-2009-1051,서울특별시,구로구,126.8978858,37.48439923
홈플러스신도림점,"생수, 쌀 등 식품류, 생활용품 ",서울특별시 구로구 경인로661,02-2618-2080,서울특별시,구로구,126.8869873,37.50904922
홈플러스,"쌀, 부탄가스, 세제류",서울특별시 금천구 시흥대로 201,02-895-2080,서울특별시,금천구,126.9007948,37.45190478
하모니마트,"쌀, 부탄가스, 세제류",서울특별시 금천구 가산로 116,02-853-9933,서울특별시,금천구,126.8931448,37.47610711
빅마켓,"쌀, 부탄가스, 세제류",서울특별시 금천구 두산로71,02-809-2500,서울특별시,금천구,126.8956736,37.47062285
홈플러스,"쌀, 부탄가스, 세제류",서울특별시 금천구 시흥대로391,02-890-8000,서울특별시,금천구,126.8968853,37.46866385
가락공판장 해나온식자재마트,"쌀, 부탄가스, 세제류",서울특별시 금천구 독산로204,02-808-5100,서울특별시,금천구,126.9026589,37.46528663
그랜드마트,"쌀, 부탄가스, 세제류",서울특별시 금천구 시흥대로142길 23,02-851-2351,서울특별시,금천구,126.9005592,37.47331576
제일소비자유통,"쌀, 부탄가스, 세제류",서울특별시 금천구 남부순환로126길 15,02-858-5838,서울특별시,금천구,126.9060211,37.47946926
농심할인마트,"쌀, 부탄가스, 세제류",서울특별시 금천구 독산로74길 14,02-864-9291,서울특별시,금천구,126.9031224,37.46860597
소비자유통,"쌀, 부탄가스, 세제류",서울특별시 금천구 시흥대로62길 60,02-892-5533,서울특별시,금천구,126.9028482,37.45689782
금천식자재마트,"쌀, 부탄가스, 세제류",서울특별시 금천구 금하로 763,02-893-3650,서울특별시,금천구,126.9145883,37.45034526
고려할인마트,"쌀, 부탄가스, 세제류",서울특별시 금천구 시흥대로18길16,02-809-8286,서울특별시,금천구,126.9044004,37.44009392
아울렛마트,"쌀, 부탄가스, 세제류",서울특별시 금천구 독산로40길29,02-893-4545,서울특별시,금천구,126.9062465,37.46068184
은행나무마트,"쌀, 부탄가스, 세제류",서울특별시 금천구 금하로 705,02-891-4666,서울특별시,금천구,126.9083613,37.45157084
홈플러스영등포점,"쌀, 부탄가스, 세제류",서울특별시 영등포구 당산로 42,02-2165-8112,서울특별시,영등포구,126.8958802,37.5182397
이마트영등포점,"쌀, 부탄가스, 세제류",서울특별시 영등포구 영중로 15,02-3468-1050,서울특별시,영등포구,126.903716,37.51723326
바다마트,생필품,서울특별시 동작구 만양로 84,02-813-6114,서울특별시,동작구,126.9452257,37.51136715
진로마트,생필품,서울특별시 동작구 장승배기로 113,02-817-0091,서울특별시,동작구,126.9393373,37.50794784
동남할인마트,생필품,서울특별시 동작구 상도로37길 54,02-814-2811,서울특별시,동작구,126.9516394,37.49925584
웰빙마트,생필품,서울특별시 동작구 상도로 340,02-823-9822,서울특별시,동작구,126.9518469,37.49785927
이마트 에브리데이 상도점,생필품,서울특별시 동작구 상도로31길 19,02-823-3651,서울특별시,동작구,126.9445418,37.50623587
성대마트,생필품,서울특별시 동작구 상도로 102,02-825-0400,서울특별시,동작구,126.9317763,37.4999427
삼원마트,생필품,서울특별시 동작구 상도로22길 37,02-822-2934,서울특별시,동작구,126.9374299,37.50163179
고마트,생필품,서울특별시 동작구 양녕로26나길 8,02-821-8305,서울특별시,동작구,126.9445589,37.49736485
하나로마트 흑석점,생필품,서울특별시 동작구 서달로 150,02-813-7013,서울특별시,동작구,126.9621838,37.50662658
이마트,생필품,서울특별시 동작구 사당로300 B1,02-595-1234,서울특별시,동작구,126.9802816,37.48437909
왕창할인마트,생필품,서울특별시 동작구 동작대로29길 63-6,02-533-2842,서울특별시,동작구,126.978344,37.48834977
코사마트,생필품,서울특별시 동작구 사당로13길 86,02-596-3710,서울특별시,동작구,126.970501,37.4876133
대림슈퍼,생필품,서울특별시 동작구 사당로17길 85,02-533-8834,서울특별시,동작구,126.9719166,37.48651459
홈플러스익스프레스남성점,생필품,서울특별시 동작구 사당로215,02-3481-8541,서울특별시,동작구,126.9723448,37.48445931
남부농협 (남성역점),생필품,서울특별시 동작구 사당로16길 35,02-525-1500,서울특별시,동작구,126.9729187,37.48197852
신세기마트,생필품,서울특별시 동작구 사당로 244,02-588-3843,서울특별시,동작구,126.9753375,37.48288276
하모니마트,생필품,서울특별시 서초구 사임당로 84,02-584-2394,서울특별시,서초구,127.0191224,37.4895608
현대할인마트,생필품,"서울특별시 서초구 사임당로 151, 대한무지개종합상가 ",02-522-0468,서울특별시,서초구,127.0256928,37.49206768
프리마트,생필품,서울특별시 서초구 효령로46길 5,02-522-9876,서울특별시,서초구,127.0090761,37.48333089
이마트에브리데이 서초동점,생필품,서울특별시 서초구 서운로 216,02-534-3651,서울특별시,서초구,127.0218706,37.50237876
코끼리마트,생필품,서울특별시 서초구 강남대로95길 52 ,02-3444-1285,서울특별시,서초구,127.0174705,37.51291017
뉴엘루체마트,생필품,서울특별시 서초구 신반포로 23,02-593-8288,서울특별시,서초구,126.9872318,37.50174714
강남공판장,생필품,서울특별시 서초구 사평대로55길 140,02-517-5976,서울특별시,서초구,127.0202952,37.50999119
롯데슈퍼 신반포점,생필품,서울특별시 서초구 신반포로15길 29,02-595-4617,서울특별시,서초구,126.9946958,37.50547058
뉴코아아울렛 강남점,생필품,서울특별시 서초구 잠원로 51,02-530-5000,서울특별시,서초구,127.0074386,37.50923945
원마트,생필품,서울특별시 서초구 방배로37길 11,02-535-8565,서울특별시,서초구,126.9891428,37.49351249
코끼리마트방배점,생필품,서울특별시 서초구 방배중앙로 30,02-525-8955,서울특별시,서초구,126.9922767,37.4827529
방배 굿모닝마트,생필품,서울특별시 서초구 방배천로16길 18,02-597-8856,서울특별시,서초구,126.9840211,37.48207758
대농마트,생필품,서울특별시 서초구 방배로76(지층),02-587-4145,서울특별시,서초구,126.9982652,37.48116034
롯데슈퍼(방배2점),생필품,서울특별시 서초구 방배로33길29,02-536-0004,서울특별시,서초구,126.9892705,37.49124224
다인마트,생필품,서울특별시 서초구 바우뫼로7길 8 ,02-578-9128,서울특별시,서초구,127.0253807,37.47085458
영동농협,생필품,서울특별시 서초구 동산로6길 3,02-571-8388,서울특별시,서초구,127.0434517,37.47084121
CU편의점,생필품,서울특별시 서초구 염곡말길19,02-575-3118,서울특별시,서초구,127.052251,37.46201728
이마트역삼점,생필품,서울 강남구 역삼로 310 이마트역삼점,02-6908-1234,서울특별시,강남구,127.0485619,37.4991357
GS 슈퍼마켓 강남영동점,생필품,서울특별시 강남구 강남대로128길 20 (논현동),02-548-6071,서울특별시,강남구,127.0238232,37.50999521
롯데마트 월드타워점,생필품,서울특별시 송파구 올림픽로 269,02-2145-8000,서울특별시,송파구,127.1006114,37.51442735
이마트가든파이브점,생필품,서울특별시 송파구 충민로 10 가든파이브툴,02-411-1234,서울특별시,송파구,127.1191067,37.47861732
이마트 천호점,생필품,서울특별시 강동구 천호대로 1017,02-2224-1234,서울특별시,강동구,127.1251462,37.53872905
농협하나로마트 자갈치점,"쌀, 생수, 부탄가스, 부식 등",부산광역시 중구 구덕로 73(남포동),051-250-7704,부산광역시,중구,129.0271554,35.09714032
롯데마트 광복점,"쌀, 생수, 부탄가스, 부식 등",부산광역시 중구 중앙대로2,051-250-2921,부산광역시,중구,129.0366323,35.0979849
세용마트,"쌀, 생수, 부탄가스, 부식, 살균·표백제 등",부산광역시 서구 대영로 78(동대신동),051-242-2826,부산광역시,서구,129.0197017,35.1103293
홈플러스 수퍼 좌천점,"쌀, 생수, 부탄가스, 부식, 살균·표백제 등",부산광역시 동구 고관로 143(좌천동),051-647-8564,부산광역시,동구,129.0486122,35.13097704
홈플러스 영도점,"쌀, 생수, 부탄가스, 부식, 살균·표백제 등",부산광역시 영도구 대교로14번길 57,051-419-8120,부산광역시,영도구,129.0442257,35.09590511
㈜대교마트,"쌀, 생수, 부탄가스, 부식, 살균·표백제 등",부산광역시 영도구 태종로 393,051-413-5577,부산광역시,영도구,129.0661348,35.09211682
이마트 서면점,"쌀, 생수, 부탄가스, 부식, 즉석식품 등",부산광역시 부산진구 시민공원로 31(부암동),051-718-1050,부산광역시,부산진구,129.0525509,35.16390445
동래메가마트,"생수, 부탄가스, 분유세트 등",부산광역시 동래구 충렬대로 197(명륜동),051-550-6021,부산광역시,동래구,129.0811367,35.20455084
휴마트 명륜점,"생수, 부탄가스, 분유세트 등",부산광역시 동래구 문화로 7,051-553-5057,부산광역시,동래구,129.0834662,35.21048648
더마트 대연점,"쌀, 생수, 부탄가스, 부식, 살균·표백제 등",부산광역시 남구 진남로 115-7,051-621-9976,부산광역시,남구,129.0829925,35.13800766
농협하나로마트,"쌀, 부식류, 생필품 등",부산광역시 북구 금곡대로 469(금곡동),051-330-9068,부산광역시,북구,129.0112179,35.25002418
롯데마트 화명점,"쌀, 부식류, 생필품 등",부산광역시 북구 화명대로 47,051-604-2522,부산광역시,북구,129.0130145,35.23516715
메가마트 덕천점,"쌀, 부식류, 생필품 등",부산광역시 북구 기찰로 164(덕천동),051-241-6000,부산광역시,북구,129.0230198,35.21419022
이마트 해운대점,"생수, 부탄가스, 분유세트 등",부산광역시 해운대구 좌동순환로 511,051-608-1054,부산광역시,해운대구,129.1673738,35.16602082
홈플러스 센텀시티점,"생수, 부탄가스, 분유세트 등",부산광역시 해운대구 센텀동로 6(우동),051-709-8121,부산광역시,해운대구,129.1336919,35.17091324
서원유통 신다대점,"쌀, 부식류, 생필품 등",부산광역시 사하구 다송로 58,051-266-8255,부산광역시,사하구,128.9829056,35.06249609
서원유통 감천점,"쌀, 부식류, 생필품 등",부산광역시 사하구 감천로 29,051-202-3555,부산광역시,사하구,128.9961062,35.09189747
서원유통 당리점,"쌀, 부식류, 생필품 등",부산광역시 사하구 낙동대로353,051-291-0035,부산광역시,사하구,128.9784769,35.10081609
서원유통 장림점,"쌀, 부식류, 생필품 등",부산광역시 사하구 다대로300번길 8,051-262-1991,부산광역시,사하구,128.9761516,35.07543262
금정농협하나로마트,"생수, 부탄가스, 분유세트 등",부산광역시 금정구 금강로 717(남산동),051-580-8862,부산광역시,금정구,129.0887695,35.27155259
롯데마트 금정점,"생수, 부탄가스, 분유세트 등",부산광역시 금정구 중앙대로 1731(부곡동),051-580-7700,부산광역시,금정구,129.0915134,35.23926793
대저농협하나로마트,"쌀, 생수, 부탄가스, 부식, 살균·표백제 등",부산광역시 강서구 대저로 229(대저동),051-971-1967,부산광역시,강서구,128.9776899,35.21481438
강서할인마트 대저점,"쌀, 생수, 부탄가스, 부식, 살균·표백제 등",부산광역시 강서구 대저로 199,051-831-4987,부산광역시,강서구,128.9747152,35.2150121
이마트 연제점,"쌀, 부식류, 생필품 등",부산광역시 연제구 연수로 89(연산동),051-860-1050,부산광역시,연제구,129.0813141,35.1761555
한양스토아 남천점,"생수, 부탄가스, 부식류 등","부산광역시 수영구 광안해변로 95,비치아파트 A상가",051-624-3131,부산광역시,수영구,129.1139786,35.14321509
㈜농심 부산지사,라면,부산광역시 사상구 사상로455번길 46,051-510-5510,부산광역시,사상구,128.984382,35.18645629
이마트 사상점,"쌀, 부식류, 생필품 등",부산광역시 사상구 광장로 17,051-329-1004,부산광역시,사상구,128.9788887,35.16423654
비세일마트 교리점,"쌀, 생수, 부탄가스, 분유세트 등",부산광역시 기장군 기장읍 차성동로 174,051-722-0207,부산광역시,기장군,129.2172663,35.25318302
탑마트 기장점,"쌀, 생수, 부탄가스, 분유세트 등",부산광역시 기장군 기장읍 대청로71번길 5,051-722-1001,부산광역시,기장군,129.2174652,35.23700184
대백프라자,"쌀, 부식류, 생필품 등",대구광역시 중구 명덕로 333(대봉동),053-420-8708,대구광역시,중구,128.6063616,35.85571704
대구백화점,"쌀, 부식류, 생필품 등",대구광역시 중구 동성로 30,053-420-8708,대구광역시,중구,128.5959441,35.86946217
동아백화점,"쌀, 부식류, 생필품 등",대구광역시 중구 달구벌대로 2085(덕산동),053-251-3391,대구광역시,중구,128.5918416,35.86633351
현대백화점,"쌀, 부식류, 생필품 등",대구광역시 중구 달구벌대로 2077(계산동),053-245-3104,대구광역시,중구,128.5906257,35.8666296
홈플러스 동촌점,"쌀, 부식류, 생필품 등",대구 동구 동촌로 127,053-559-2080,대구광역시,동구,128.655689,35.886074
하나로마트 대구축협 본점,"쌀, 부식류, 생필품 등",대구광역시 동구 동북로 296(신암동),053-957-9901,대구광역시,동구,128.6222928,35.89197301
홈마트 신서점,"쌀, 부식류, 생필품 등",대구광역시 동구 반야월북로55길 2(신서동),053-961-0087,대구광역시,동구,128.7291111,35.87289725
대백마트 불로점,"쌀, 부식류, 생필품 등",대구광역시 동구 팔공로28길 6(불로동),053-981-2555,대구광역시,동구,128.6416364,35.91066866
내고장할인마트,"쌀, 부식류, 생필품 등",대구광역시 동구 아양로37길 14(신암동),053-957-8092,대구광역시,동구,128.6340001,35.88659778
홈플러스 내당점,"쌀, 부식류, 생필품 등",대구광역시 서구 달구벌대로 1821(내당동),053-567-2080,대구광역시,서구,128.5637315,35.86032282
이마트 비산점,"쌀, 부식류, 생필품 등",대구광역시 서구 팔달로 54(비산동),053-714-1050,대구광역시,서구,128.5559625,35.88990466
하나로마트 서대구농협,"쌀, 부식류, 생필품 등",대구광역시 서구 서대구로 92(평리동),053-561-8860,대구광역시,서구,128.5560721,35.86609186
대백마트 봉덕지점,"쌀, 부식류, 생필품 등",대구광역시 남구 대봉로 78(봉덕동),053-652-7788,대구광역시,남구,128.6041964,35.84566541
윌마트 본점,"쌀, 부식류, 생필품 등",대구광역시 남구 대봉로 92(이천동),053-476-2150,대구광역시,남구,128.6045131,35.8468023
하나로마트 대구축협봉덕점,"쌀, 부식류, 생필품 등",대구광역시 남구 봉덕로 105(봉덕동),053-476-9904,대구광역시,남구,128.6020929,35.84481811
홈플러스 대구점,"쌀, 부식류, 생필품 등",대구광역시 북구 중앙대로 543(칠성동),053-350-8121,대구광역시,북구,128.5957656,35.88148155
홈플러스 칠곡점,"쌀, 부식류, 생필품 등",대구광역시 북구 동암로12길 8(동천동),053-607-8124,대구광역시,북구,128.5559672,35.94484991
이마트 칠성점,"쌀, 부식류, 생필품 등","대구광역시 북구 침산로 93(칠성동, 스펙트럼시티)",053-609-1119,대구광역시,북구,128.5897899,35.88522557
롯데마트 칠성점,"쌀, 부식류, 생필품 등",대구광역시 북구 호암로 1(칠성동),053-715-2520,대구광역시,북구,128.5910989,35.88392005
하나로마트 동대구농협본점,"쌀, 부식류, 생필품 등",대구광역시 수성구 달구벌대로 2487(범어동),053-751-0094,대구광역시,수성구,128.6346411,35.85924414
이마트 만촌점,"쌀, 부식류, 생필품 등",대구광역시 수성구 동원로 136(만촌동),053-602-1052,대구광역시,수성구,128.6371473,35.87120649
동아백화점 수성점,"쌀, 부식류, 생필품 등",대구광역시 수성구 지범로 191(범물동),053-780-2301,대구광역시,수성구,128.6403608,35.82107224
동아마트 수성점,"쌀, 부식류, 생필품 등","대구광역시 수성구 수성로 393(수성동4가, 수성하이츠)",053-754-2031,대구광역시,수성구,128.6132923,35.86116149
이마트 성서점,"쌀, 부식류, 생필품 등",대구광역시 달서구 이곡동로 24(이곡동),053-605-1119,대구광역시,달서구,128.5101684,35.85332959
이마트 월배점,"쌀, 부식류, 생필품 등",대구광역시 달서구 진천로 92(대천동),053-607-1050,대구광역시,달서구,128.5236551,35.81718563
홈플러스 성서점,"쌀, 부식류, 생필품 등",대구광역시 달서구 달구벌대로 1467(용산동),053-550-8121,대구광역시,달서구,128.5274058,35.84945361
홈플러스 상인점,"쌀, 부식류, 생필품 등",대구광역시 달서구 월배로 183(상인동),053-380-8121,대구광역시,달서구,128.5325521,35.8182778
하나로마트 달성점,"쌀, 부식류, 생필품 등",대구광역시 달성군 화원읍 성천로 9,053-607-2051,대구광역시,달성군,128.4871823,35.79929079
성원할인마트,"쌀, 부식류, 생필품 등",대구광역시 달성군 논공읍 논공로21길 14-16,053-614-8481,대구광역시,달성군,128.4457874,35.7304328
대백마트 다사점,"쌀, 부식류, 생필품 등",대구광역시 달성군 다사읍 달구벌대로174길 7,053-588-7007,대구광역시,달성순,128.4632081,35.8580182
공단할인마트,"쌀, 부식류, 생필품 등",대구광역시 달성군 옥포읍 시저로 4,053-611-2508,대구광역시,달성군,128.4310183,35.77985909
킹스할인마트 현풍점,"쌀, 부식류, 생필품 등",대구광역시 달성군 현풍읍 비슬로130길 10,053-611-0231,대구광역시,달성군,128.4399006,35.69425349
이마트 트레이더스 송림점,"쌀, 부식류, 생필품 등",인천광역시 동구 봉수대로 82(송림동),032-722-1119,인천광역시,동구,126.6603513,37.48305893
이마트 인천공항점,"쌀, 부식류, 생필품 등",인천광역시 중구 공항로424번길 36(운서동),032-744-1234,인천광역시,중구,126.4577937,37.43993051
이마트 동인천점,"쌀, 부식류, 생필품 등",인천광역시 중구 인중로 134(신생동),032-451-1234,인천광역시,중구,126.6291743,37.46655131
홈플러스 숭의지점,"쌀, 부식류, 생필품 등",인천광역시 미추홀구 석정로 51(숭의동),032-719-2020,인천광역시,미추홀구,126.6435082,37.46558683
롯데슈퍼 연수점,"쌀, 부식류, 생필품 등",인천광역시 연수구 원이재로 59(동춘동),032-815-8114,인천광역시,연수구,126.6728474,37.4069405
남동농협 하나로마트,"쌀, 부식류, 생필품 등",인천광역시 남동구 장승로 28,032-460-6705,인천광역시,남동구,126.7352625,37.44532597
부평농협 하나로마트,"쌀, 부식류, 생필품 등",인천광역시 부평구 길주로 597(갈산동),032-500-2558,인천광역시,부평구,126.7289047,37.50749583
홈플러스 작전점,"쌀, 부식류, 생필품 등",인천광역시 계양구 계양대로 27(작전동),032-540-8000,인천광역시,계양구,126.7212582,37.52617767
이마트 계양점,"쌀, 부식류, 생필품 등",인천광역시 계양구 봉오대로 785(작전동),032-717-1234,인천광역시,계양구,126.7368967,37.53103804
홈플러스 인천가좌점,"쌀, 부식류, 생필품 등",인천광역시 서구 가정로151번길 11(가좌동),032-453-8124,인천광역시,서구,126.6707373,37.49764729
이마트 인천검단점,"쌀, 부식류, 생필품 등",인천광역시 서구 서곶로 754(당하동),032-440-1051,인천광역시,서구,126.6772162,37.58571509
롯데마트 인천청라점,"쌀, 부식류, 생필품 등",인천광역시 서구 청라커낼로 252(청라동),032-590-2521,인천광역시,서구,126.6477824,37.53025357
홈플러스 인천청라점,"쌀, 부식류, 생필품 등",인천광역시 서구 중봉대로 587(경서동),032-723-8925,인천광역시,서구,126.648742,37.53237386
롯데마트 검단점,"쌀, 부식류, 생필품 등",인천광역시 서구 원당대로 581(마전동),032-560-2524,인천광역시,서구,126.6645754,37.59453197
하나로마트 강화농협농산물직판장,"쌀, 부식류, 생필품 등",인천광역시 강화군 강화읍 중앙로 68,032-934-0901,인천광역시,강화군,126.4875838,37.73790972
플러스마트 강화점,"쌀, 부식류, 생필품 등",인천광역시 강화군 강화읍 남문로 7,032-934-8262,인천광역시,강화군,126.4880717,37.73859729
중앙마트,"쌀, 부식류, 생필품 등",인천광역시 강화군 강화읍 강화대로429,032-932-2015,인천광역시,강화군,126.4839146,37.74693259
이브자리 강화점,"담요, 전기매트 등",인천광역시 강화군 강화읍 강화대로 388,032-933-1888,인천광역시,강화군,126.487966,37.74543233
한일자동펌프,양 수 기 등,인천광역시 강화군 강화읍강화대로284,032-932-3083,인천광역시,강화군,126.4982905,37.7412032
재 경 약 국,응급약품세트,인천광역시 강화군 강화읍강화대로412,032-934-4741,인천광역시,강화군,126.4859736,37.7466913
하나로마트 강화농협중앙지점,"쌀, 부식류, 생필품 등",인천광역시 강화군 강화읍 강화대로 391,032-934-0541,인천광역시,강화군,126.4873089,37.74524865
하나로마트 인천농협본점 ,"쌀, 부식류, 생필품 등",인천광역시 중구 인중로41번길 1(신흥동),032-760-1311,인천광역시,중구,126.6383057,37.46340509
이마트 동광주점,개별구호물품,광주광역시 동구 중앙로 358(계림동),062-519-1050,광주광역시,동구,126.9202183,35.16359189
전남농산물직판장,"생필품, 주부식류",광주광역시 서구 화정로 312(농성동),062-365-0226,광주광역시,서구,126.8900051,35.1502327
남광주농협,개별구호물품,광주광역시 남구 대남대로 169(주월동),062-600-3336,광주광역시,남구,126.9065694,35.13341232
장터마트,개별구호물품,광주광역시 북구 호동로 13(용봉동),062-262-2702,광주광역시,북구,126.9138187,35.17509775
한들마트,개별구호물품,광주광역시 광산구 내상로 3(송정동),062-945-5080,광주광역시,광산구,126.7950781,35.14122626
홈플러스 가오점,부식류 등(개별구호물품),대전광역시 동구 은어송로 72(가오동),042-281-8000,대전광역시,동구,127.4579858,36.30696782
농협 대전 농산물유통센터,부식류 등(개별구호물품),대전광역시 중구 대둔산로 199번길 43(산성동),042-580-5030,대전광역시,중구,127.3784461,36.28859086
홈플러스 둔산점,부식류 등(개별구호물품),대전광역시 서구 문예로 107,042-611-8121,대전광역시,서구,127.3891648,36.35637169
유성농협 하나로마트 궁동점,부식류 등(개별구호물품),대전광역시 유성구 농대로 13(궁동),042-822-2869,대전광역시,유성구,127.3529005,36.36184286
회덕농협 와동점,부식류 등(개별구호물품),대전광역시 대덕구 와동 372-3,042-622-9020,대전광역시,대덕구,127.4230688,36.40119102
신탄진농협,부식류 등(개별구호물품),대전광역시 대덕구 덕암동 60-6,042-931-5501,대전광역시,대덕구,127.4223272,36.43702164
홈플러스 울산점,"생수, 쌀, 부식류 등",울산광역시 중구 번영로 475,052-290-8124,울산광역시,중구,129.3348601,35.5643864
한사랑약국,응급의약품,"울산광역시 중구 번영로 475, 1층",052-296-9991,울산광역시,중구,129.3348601,35.5643864
희망약국,응급의약품,"울산광역시 중구 번영로 590, 103호",052-294-0906,울산광역시,중구,129.3464899,35.56895165
롯데마트 울산점,"수건, 가스버너, 취사도구 등",울산광역시 남구 삼산로 74,052-228-2521,울산광역시,남구,129.3159085,35.53397811
모여라마트,"생수, 쌀, 부식류 등",울산광역시 동구 월봉10길 19,052-201-8383,울산광역시,동구,129.4199415,35.49402033
팜플러스약국,응급의약품,울산광역시 동구 방어진순환도로 637,052-234-6664,울산광역시,동구,129.4274742,35.49897226
롯데마트 진장점,"생수, 쌀, 부식류 등",울산광역시 북구 진장유통로 64,052-240-2522,울산광역시,북구,129.359025,35.57600457
느티나무약국,응급의약품,울산광역시 북구 진장유통로 90 농협울산유통센터 내,052-287-7320,울산광역시,북구,129.3587525,35.57911086
메가마트 언양점,"생수, 쌀, 부식류 등",울산광역시 울주군 삼남면 반구대로 612,052-255-6021,울산광역시,울주군,129.1175976,35.54633971
나이스 할인클럽,"생수, 쌀, 부식류 등",울산광역시 울주군 온산읍 덕망로 3,052-237-7111,울산광역시,울주군,129.308386,35.43381808
임약국,응급의약품,울산광역시 울주군 언양읍 헌양길 46,052-262-0073,울산광역시,울주군,129.1250173,35.56519951
부산약국,응급의약품,울산광역시 울주군 온산읍 덕신로 258,052-238-6677,울산광역시,울주군,129.30966,35.43339426
천사마트,"쌀, 부식류, 생필품 등",세종특별자치시 조치원읍 충현로 50,044-862-1004,세종특별자치시,조치원읍,127.2987575,36.59359741
세종중앙농협 나성지점,"쌀, 부식류, 생필품 등",세종특별자치시 나성로 96 더센트럴 1층,044-868-4538,세종특별자치시,나성로,127.2610025,36.48787896
뉴마트,"쌀, 부식류, 생필품 등",세종특별자치시 한누리대로 291,044-863-9458,세종특별자치시,한누리대로,127.2560339,36.49020931
이마트 세종점,"쌀, 부식류, 생필품 등",세종특별자치시 금송로 687(가람동),044-902-1251,세종특별자치시,금송로,127.2509825,36.47089965
조치원농협 하나로마트,"쌀, 부식류, 생필품 등",세종특별자치시 조치원읍 대첩로 5,044-865-2460,세종특별자치시,조치원읍,127.2955885,36.59546418
이마트에브리데이,"쌀, 부식류, 생필품 등",세종특별자치시 남세종로 469(소담동),044-417-6117,세종특별자치시,남세종로,127.2893791,36.47646497
홈플러스 조치원점,"쌀, 부식류, 생필품 등",세종특별자치시 조치원읍 허만석로 60,044-861-8124,세종특별자치시,조치원읍,127.2977265,36.58637293
이마트 광교점,"쌀, 부식류 등",경기도 수원시 영통구 광교로 191,031-328-9151,경기도,수원시,127.0469544,37.29635002
이마트 화정점,"쌀, 부식류 등",경기도 고양시 덕양구 백양로79,031-995-1050,경기도,고양시,126.8333993,37.63268708
㈜한울정보넷,"천막, 탁자, 의자 등",경기도 일산동구 일산로463번길 48-1,031-918-1244,경기도,일산동구,126.7741046,37.67227055
용인농협 파머스마켓,"생수, 쌀, 부식류 등",경기도 용인시 처인구 금령로55번길 16,031-321-7100,경기도,용인시,127.2020682,37.2352459
그랜드약국,응급의약품,경기도 용인시 처인구 금령로71번길 16,031-335-4996,경기도,용인시,127.2037711,37.2362879
농협성남농산물종합유통센터,"쌀, 부식류 등",경기도 성남시 분당구 성남대로43번길 11,031-738-9113,경기도,성남시,127.106677,37.33876499
해인약국,응급의약품,경기도 성남시 분당구 양현로 310번길 7,031-8017-2243,경기도,성남시,127.1246625,37.41155732
부천농협하나로마트,"쌀, 부식류 등",경기도 부천시 신흥로 187,032-321-3675,경기도,부천시,126.7764809,37.50032289
정약국,응급의약품,경기도 부천시 길주로 221,032-327-8791,경기도,부천시,126.7672363,37.50471572
안산농협하나로마트,"쌀, 부식류 등",경기도 안산시 상록구 예술광장로 75,031-405-8511,경기도,안산시,126.8443706,37.32758804
농협하나로마트,"생수, 쌀, 부식류 등",경기도 화성시 남양읍 남양시장로 58-6,031-356-2905,경기도,화성시,126.8152382,37.2085425
동남마트,"쌀, 부식류 등",경기도 남양주시 홍유릉로 282,031-559-8863,경기도,남양주시,127.2016484,37.62725946
이마트 남양주점,"쌀, 부식류 등",경기도 남양주시 늘을2로 27,031-590-1051,경기도,남양주시,127.2430529,37.65504747
다보약국,응급의약품,경기도 남양주시 사릉로 431,031-573-9028,경기도,남양주시,127.1766756,37.65710591
관양할인마트,"쌀, 부식류, 생필품",경기도 안양시 동안구 관평로328번길 36,031-381-6161,경기도,안양시,126.9594277,37.40471399
우리마트,"쌀, 부식류, 생필품",경기도 안양시 만안구 석천로171번길 20,031-381-8185,경기도,안양시,126.9079976,37.4128602
신라약국,응급 의약품,경기도 안양시 동안구 관평로 227,031-381-1563,경기도,안양시,126.9578362,37.3967539
평택농협하나로마트,"쌀, 부식류 등",경기도 평택시 평택1로 45,031-8053-6850,경기도,평택시,127.0876083,36.99621407
롯데마트 의정부점,"쌀, 부식류 등",경기도 의정부시 산단로76번길116,031-850-2514,경기도,의정부시,127.0842716,37.74279157
롯데마트 장암점,"쌀, 부식류 등",경기도 의정부시 장곡로 224,031-849-2523,경기도,의정부시,127.0530594,37.72370423
장암프라자약국,응급의약품,경기도 의정부시 발곡로 34,031-826-5571,경기도,의정부시,127.0586211,37.73089126
광탄농협하나로마트,"쌀, 부식류 등",경기도 파주시 광탄면 신산리 366-1,031-947-7871,경기도,파주시,126.8449091,37.78331949
금촌코끼리약국,응급의약품,"경기도 파주시 시청로 2, 1층",031-948-8275,경기도,파주시,126.7742406,37.75784489
이마트 시화점,부식류 등,경기도 시흥시 정왕대로 210,031-496-4123,경기도,시흥시,126.7368714,37.34594206
굿마트,부식류 등,경기도 시흥시 시청로68번길 14,031-404-5949,경기도,시흥시,126.8012604,37.38130695
이마트 에브리데이,부식류 등,경기도 시흥시 새재로17번길 3,031-315-8364,경기도,시흥시,126.8017629,37.38105299
김포농협하나로마트,"쌀, 부식류 등",경기도 김포시 북변로 11,031-984-8251,경기도,김포시,126.7129803,37.6316148
팜스마트 사우점,"쌀, 부식류 등",경기 김포시 사우로 15,031-997-3134,경기도,김포시,0,0
이마트 광명점,"생수, 쌀, 부식류 등",경기도 광명시 오리로970 (광명동) ,02-2627-6302,경기도,광명시,126.8556443,37.47946062
철산약국,응급의약품,경기도 광명시 오리로 857(철산동) ,02-2612-2342,경기도,광명시,126.8662612,37.47489734
크로바쇼핑,"쌀, 부식류 등",경기도 광주시 송정로 15(송정동),031-798-4141,경기도,광주시,127.2570596,37.41872399
럭키마트,"쌀, 부식류 등",경기도 군포시 산본천로 18,031-393-0189,경기도,군포시,126.9263946,37.35860355
이천농협,"쌀, 부식류 등",경기도 이천시 영창로 235(창전동),031-634-7164,경기도,이천시,127.4486321,37.28116529
콜마트,"쌀, 부식류 등",경기도 오산시 운천로115,031-373-0555,경기도,오산시,127.074154,37.15322185
수협바다마트 신장점,"쌀, 부탄가스 등",경기도 하남시 대청로22번길 17,031-794-6114,경기도,하남시,127.2155501,37.53998537
양주농협하나로마트,"쌀, 부식류 등",경기도 양주시 고읍로 76,031-848-8460,경기도,양주시,127.0797591,37.79641058
광적농협하나로마트,"쌀, 부식류 등",경기도 양주시 광적면 가래비길 132,031-837-0083,경기도,양주시,126.9838159,37.82622341
상대유통,"쌀, 부식류 등","경기도 구리시 동구릉로136번길 90(인창동,구리농수산물수산2동 1층 21110호)",031-567-9500,경기도,구리시,127.144483,37.6159287
농협하나로마트 수평점,"쌀, 부식류 등",경기도 구리시 이문안로 86,031-550-9364,경기도,구리시,127.1410565,37.59179101
안성농업협동조합,"쌀,부식류 등",경기도 안성시 중앙로 372번길 26,031-678-1880,경기도,안성시,127.2672411,37.0066568
포천농업협동조합,"식품류, 생필품 등",경기도 포천시 중앙로 175,031-534-1906,경기도,포천시,127.2063136,37.90114883
GS 슈퍼마켓 의왕점,쌀 및 부식류,경기도 의왕시 사천로 15,031-453-3067,경기도,의왕시,126.9774515,37.34601287
롯데마트 의왕점,쌀 및 부식류,경기도 의왕시 계원대학로 7,031-470-2520,경기도,의왕시,126.9728711,37.38054323
여주농협하나로마트,"쌀, 부식류 등",경기도 여주시 여흥로 47번길 8-16,031-883-3045,경기도,여주시,127.6298813,37.29803732
여주축협하나로마트,"쌀, 부식류 등",경기도 여주시 강변북로 50,031-886-2471,경기도,여주시,127.6459888,37.3020351
양평농협하나로마트,"쌀, 부식류 등",경기도 양평군 양평읍 남북로 96,031-775-0411,경기도,양평군,127.5026649,37.49086686
국민마트 동두천점,"쌀, 부식류 등",경기도 동두천시 장고갯로 50,031-867-8249,경기도,동두천시,127.0610385,37.89992366
농협하나로마트 동두천점,"쌀, 부식류 등",경기도 동두천시 중앙로 207,031-861-3304,경기도,동두천시,127.0522865,37.89996751
이마트 과천점,"쌀, 생수, 부식류 등",경기도 과천시 별양상가3로 11,02-6445-4123,경기도,과천시,126.9918607,37.42629557
하나로마트 과천점,"쌀, 생수, 부식류 등",경기도 과천시 별양로 178 ,02-500-3300,경기도,과천시,126.998201,37.43365949
가평군농협하나로마트,"쌀, 부식류 등",경기도 가평군 가평읍 가화로 120,031-581-2390,경기도,가평군,127.5141709,37.83017035
연천농협하나로마트,"쌀, 부식류 등",경기도 연천군 연천읍 연천역로 11,031-834-2088,경기도,연천군,127.0764041,38.10158642
전곡농협하나로마트,"쌀, 부식류 등",경기도 연천군 전곡읍 평화로 557,031-830-3258,경기도,연천군,127.067204,38.02021465
중앙약국,응급의약품,경기도 연천군 연천읍 연천로252번길 3,031-834-0124,경기도,연천군,127.0747883,38.09935959
춘천농협하나로마트 소양점,생필품 등,강원도 춘천시 소양로3가 110-1,033-253-8030,강원도,춘천시,127.7237068,37.88360308
원주원예 하나로클럽,생필품 등,강원도 원주시 무실로 182,033-749-8841,강원도,원주시,127.9392853,37.34144323
양돈농협하나로마트 신교동지점,생필품 등,강원도 강릉시 솔올로 9,033-655-2216,강원도,강릉시,128.8772215,37.76292078
강릉원마트,생필품 등,강원도 강릉시 성덕포남로 67,033-652-5466,강원도,강릉시,128.9175307,37.76046918
동해시청편의점,생필품 등,강원도 동해시 천곡로 77,033-532-6037,강원도,동해시,129.1143606,37.52473023
원마트,생필품 등,강원도 태백시 황지로 168,033-553-0788,강원도,태백시,128.991507,37.17366008
속초농협하나로마트 엑스포점,생필품 등,강원도 속초시 동해대로 4202,033-630-1500,강원도,속초시,128.5790298,38.19456392
속초농협하나로마트 중앙시장점,생필품 등,강원도 속초시 중앙로147번길 16,033-633-1508,강원도,속초시,128.5901906,38.20452186
삼척농협하나로마트,생필품 등,강원도 삼척시 정상로 78,033-571-8915,강원도,삼척시,129.1755098,37.44884887
홍천내고향마트,"생필품 등(생수,쌀,부식,즉석식품,부탄가스,칫솔,화장지 등)",강원도 홍천군 홍천읍 희망로13길 9,033-433-0300,강원도,홍천군,127.8897536,37.69499562
델마트,생필품 등,강원도 횡성군 횡성읍 한우로 247,033-343-3341,강원도,횡성군,127.9829129,37.49167616
하나로마트 횡성농협본점,생필품 등,강원도 횡성군 횡성읍 문정로 46,033-344-2914,강원도,횡성군,127.9882337,37.48866504
롯데슈퍼 영월점,생필품 등,강원도 영월군 영월읍 단종로15번길 60-13,033-373-5601,강원도,영월군,128.4647033,37.18541166
평창축협 하나로마트,생필품 등,강원도 평창군 평창읍 백오로 9 ,033-334-2315,강원도,평창군,128.390475,37.36818252
평창농협 하나로마트,생필품 등,강원도 평창군 평창읍 백오로 63,033-332-2533,강원도,평창군,128.393501,37.36795635
하나로마트 진부농협점,생필품 등,강원도 평창군 진부면 진부중앙로 27,033-335-8244,강원도,평창군,128.5560274,37.63470276
K마트,생필품 등,강원도 정선군 정선읍 정선로 1255,033-563-4331,강원도,정선군,128.6540494,37.37893649
한일슈퍼마켓,생필품 등,강원도 정선군 정선읍 정선로 1341,033-563-0105,강원도,정선군,128.6630403,37.37980814
정선농협 하나로마트,생필품 등,강원도 정선군 정선읍 봉양7길 34,033-563-2346,강원도,정선군,128.6654806,37.37961252
동철원농협 하나로마트,생필품 등,강원도 철원군 갈말읍 삼부연로 17,033-452-6222,강원도,철원군,127.3099743,38.14566219
할렐루야 슈퍼,생필품 등,강원도 화천군 화천읍 산수화로1길 29,033-442-7800,강원도,화천군,127.7076714,38.10717015
양구농협하나로마트 정중앙점,생필품 등,강원도 양구군 양구읍 청춘로 73-20,033-481-2089,강원도,양구군,127.9927412,38.09664307
하나로마트 인제농협본점,생필품 등,강원도 인제군 인제읍 비봉로 23,033-461-2572,강원도,인제군,128.1739774,38.06752662
하나로마트 인제농협원통점,생필품 등,강원도 인제군 북면 원통로 164,033-461-3280,강원도,인제군,128.2031829,38.12172496
금강농협 파머스마켓,생필품 등,강원도 고성군 간성읍 간성북로7번길 15,033-681-2294,강원도,고성군,128.4699248,38.38057654
양양농협하나로마트,생필품 등,강원도 양양군 양양읍 남문5길 18,033-671-0071,강원도,양양군,128.6228683,38.07386156
양양축협하나로마트,생필품 등,강원도 양양군 양양읍 양양로 49,033-671-8868,강원도,양양군,128.623772,38.07582964
이마트 청주점,"생수, 쌀 등",충청북도 청주시 서원구 청남로 1853 ,043-210-1051,충청북도,청주시,127.474617,36.60117672
농협하나로클럽 청주점,"생수, 쌀 등",충청북도 청주시 상당구 무농정로 32,043-290-0143,충청북도,청주시,127.5073919,36.60481735
하나로마트 충북원예농협 본점,"생수, 쌀, 부식 등",충청북도 충주시 번영대로 225,043-850-5934,충청북도,충주시,127.9427389,36.98746566
제천농협 하나로마트,"생수, 쌀, 부식 등",충청북도 제천시 숭문로 92,043-653-8071,충청북도,제천시,128.2090098,37.14106287
보은농협 하나로마트,"치약, 물티슈, 쌀, 부식류 등",충청북도 보은군 보은읍 보은로 143,043-544-0771,충청북도,보은군,127.7173649,36.48691887
삼산약국,"모기약, 반창고 등",충청북도 보은군 보은읍 보은로 104,043-544-3375,충청북도,보은군,127.718056,36.48338351
해림상회,전기매트(한파 시),충청북도 보은군 보은읍 삼산로3길 3,043-544-2328,충청북도,보은군,127.7193074,36.48374517
옥천농협 하나로마트,"생수, 쌀, 부식 등",충청북도 옥천군 옥천읍 삼금로 21,043-730-6087,충청북도,옥천군,127.5668335,36.30087192
㈜엘마트,"생수, 쌀, 부식 등",충청북도 옥천군 옥천읍 금장로 114,043-732-6650,충청북도,옥천군,127.5756213,36.29766509
㈜제이마트,"생수, 쌀, 부식 등",충청북도 옥천군 옥천읍 관성로 5,043-731-8832,충청북도,옥천군,127.5708425,36.30292167
영동농협 하나로마트,"생수, 쌀, 부식 등",충청북도 영동군 영동읍 난계로 1194,043-740-8080,충청북도,영동군,127.7737151,36.17273822
㈜현대쇼핑,"생수, 쌀, 부식 등",충청북도 영동군 영동읍 계산로 40,043-744-2200,충청북도,영동군,127.781239,36.17311372
증평농협 하나로마트(중앙점),생필품류,충북 증평군 증평읍 중앙로 191,043-836-4165,충청북도,증평군,0,0
증평농협 하나로마트(본점),생필품류,충청북도 증평군 증평읍 광장로 27,043-838-5459,충청북도,증평군,127.5792779,36.79048562
GS리테일 증평점,생필품류,충청북도 증평군 증평읍 창신로 54,043-836-6711,충청북도,증평군,127.5788975,36.78065311
남한강마트진천점,"생수, 쌀, 부식 등",충북 진천군 진천읍 대촌길 1,043-536-1249,충청북도,진천군,0,0
화랑마트,"생수, 쌀, 부식 등",충청북도 진천군 진천읍 남산길 64,043-533-4444,충청북도,진천군,127.442076,36.85341614
괴산농협 하나로마트,"생수, 쌀, 부식 등",충청북도 괴산군 괴산읍 읍내로 272-5,043-834-0371,충청북도,괴산군,127.7942929,36.80762316
음성농협 하나로마트,"생수, 쌀, 부식 등",충청북도 음성군 음성읍 설성로 69,043-872-6520,충청북도,음성군,127.6898067,36.930923
생극농협 하나로마트,"생수, 쌀, 부식 등",충청북도 음성군 생극면 음성로 1665-3,043-877-4781,충청북도,음성군,127.6042911,37.03562448
대소농협 하나로마트,"생수, 쌀, 부식 등",충청북도 음성군 대소면 오태로 154,043-881-7344,충청북도,음성군,127.4919715,36.96592543
단양농협 하나로마트,"생수, 쌀, 부식 등",충청북도 단양군 단양읍 삼봉로 287,043-422-3408,충청북도,단양군,128.3687093,36.98252997
종합마트식품,"식품, 부탄가스, 쌀 , 생필품 ",충청남도 천안시 동남구 개목4길 8,041-576-6621,충청남도,천안시,127.1329436,36.81487899
드림마트,생필품,충청남도 공주시 오거리길 6(봉황동),041-858-4688,충청남도,공주시,127.1209714,36.4485846
대천농협 하나로마트,"생수, 쌀, 즉석식품, 부식 등 생필품, 전자제품 등",충청남도 보령시 남대천로 50,041-935-0148,충청남도,보령시,126.5936197,36.34932596
홈플러스 보령점,"생수, 쌀, 즉석식품, 부식 등 생필품, 전자제품 등",충청남도 보령시 명암1길 17,041-939-8114,충청남도,보령시,126.6138695,36.3440523
롯데마트 아산점,"식품,부탄가스",충청남도 아산시 번영로 225,041-537-2500,충청남도,아산시,127.0159008,36.78464069
이마트 아산점,"생수쌀,부식류,살균표백제 즉석식품,분유세트,기저귀,모기약등",충청남도 아산시 온천대로 1678,041-422-1053,충청남도,아산시,127.0217713,36.77642348
아산원예농협하나로클럽(모종),양곡 및 생필품,충청남도 아산시 모종로 49,041-532-8008,충청남도,아산시,127.0223176,36.78555592
아산원예농협하나로클럽(방축),일용품 세트,충청남도 아산시 온천대로 1336,041-538-5000,충청남도,아산시,126.9869359,36.78446172
서산축협,"식료품, 생필품",충청남도 서산시 고운로 157,041-665-7501,충청남도,서산시,126.4528942,36.7836362
논산계룡축산농협 본점  ,"생수,쌀,부식류,부탄가스,살균표백제,즉석식품,분유세트,기저귀,모기약등",충청남도 논산시 시민로194번길 1,041-730-2263,충청남도,논산시,127.0991877,36.18511019
논산계룡농협연산점,식료품등 잡기,충청남도 논산시 연산면 황산벌로 1446,041-734-2480,충청남도,논산시,127.218793,36.20822245
홈플러스 계룡점,"생수,쌀,부식류,부탄가스,살균표백제,즉석식품,분유세트,기저귀,모기약등",충청남도 계룡시 계룡대로 304,042-840-8000,충청남도,계룡시,127.2571413,36.27400109
롯데마트,"생수,쌀,부식류,부탄가스,살균표백제,즉석식품,분유세트,기저귀,모기약등",충청남도 당진시 정안로 20 롯데마트,041-832-2500,충청남도,당진시,126.64626,36.90577418
GS슈퍼마켓,"생수,쌀,부식류,부탄가스,살균표백제,즉석식품,분유세트,기저귀,모기약등",충청남도 당진시 당진중앙2로 185-50,041-357-8260,충청남도,당진시,126.6339499,36.89672191
하나로마트 당진농협,"쌀, 생수, 부식류 등 생필품",충청남도 당진시 당진중앙1로 136,041-352-4708,충청남도,당진시,126.6311964,36.89523236
송악농협 하나로 마트,"쌀, 생수, 부식류 등 생필품",충남 아산시 송악면 송악로 798,041-356-4003,충청남도,당진시,0,0
큰길천막,천막 등,충청남도 금산군 금산읍 비호로 40,041-752-5775,충청남도,금산군,127.487056,36.10735528
금산코아마트,생필품,충청남도 금산군 금산읍 후곤천길 73,041-752-2008,충청남도,금산군,127.4903041,36.10571769
금산농협하나로마트 비호점,생필품,충청남도 금산군 금산읍 비단로 326,041-751-9340,충청남도,금산군,127.486974,36.11053912
부여농업협동조합,생필품,충청남도 부여군 부여읍 사비로100번길 9,041-835-8000,충청남도,부여군,126.9115532,36.28175806
서천축협 장항 하나로마트,식료품 및 생필품 등,충청남도 서천군 장항읍 장항로 207,041-956-7872,충청남도,서천군,126.7007168,36.01084668
장항농협 하나로마트,식료품 및 생필품 등,충청남도 서천군 장항읍 신창동로 30,041-957-2267,충청남도,서천군,126.6931019,36.01100625
서천축협 본소하나로마트,식료품 및 생필품 등,충청남도 서천군 서천읍 서천로 160,041-953-2220,충청남도,서천군,126.6873501,36.08210227
서천농협 서부하나로마트,식료품 및 생필품 등,충청남도 서천군 서천읍 송신로 17,041-953-2461,충청남도,서천군,126.6846585,36.07868222
동서천농협 화양지소 하나로마트,식료품 및 생필품 등,충청남도 서천군 화양면 옥포길 17,041-951-1584,충청남도,서천군,126.7824425,36.0393562
동서천농협 하나로마트,식료품 및 생필품 등,충청남도 서천군 기산면 기산길 68,041-951-6623,충청남도,서천군,126.7630944,36.0739656
한산농협 하나로마트,식료품 및 생필품 등,경남 통영시 한산면 한산일주로 858,041-951-0282,충청남도,서천군,0,0
동서천농협 마산지소 하나로마트,식료품 및 생필품 등,충청남도 서천군 마산면 삼일로 273,041-953-1688,충청남도,서천군,126.7921416,36.11672333
서천농협 문산지소 하나로마트,식료품 및 생필품 등,충청남도 서천군 문산면 신농길 19,041-952-4020,충청남도,서천군,126.7526263,36.14081254
판교농협 하나로마트,식료품 및 생필품 등,충청남도 서천군 판교면 종판로 897,041-951-5526,충청남도,서천군,126.6902625,36.15417317
서서천농협 하나로마트,식료품 및 생필품 등,충청남도 서천군 비인면 비인로 199-1,041-952-8101,충청남도,서천군,126.6004576,36.1418774
서서천농협 하나로마트 서면점,식료품 및 생필품 등,충청남도 서천군 서면 서인로 754,041-951-8108,충청남도,서천군,126.548758,36.15224587
청양농협 하나로마트,"생필품, 식음료 등",충청남도 청양군 청양읍 문화예술로 72,041-943-9288,충청남도,청양군,126.7983373,36.44593517
홍성 농협 하나로마트,"쌀, 생수, 부식류 등 생필품",충청남도 홍성군 홍성읍 조양로 151,041-630-4000,충청남도,홍성군,126.6663947,36.6020465
홍성 축협 하나로마트,"쌀, 생수, 부식류 등 생필품",충청남도 홍성군 홍성읍 내포로 139,041-631-8100,충청남도,홍성군,126.6547879,36.59448146
그랜드마트,"쌀, 생수, 부식류 등 생필품",충청남도 홍성군 홍성읍 조양로 18,041-633-6420,충청남도,홍성군,126.6579043,36.59679006
예산농협 하나로마트,"쌀, 생수, 부식류 등 생필품",충청남도 예산군 예산읍 벚꽃로 139-22,041-335-1100,충청남도,예산군,126.8341416,36.69399745
예산축협 하나로마트 신읍내점,"쌀, 생수, 부식류 등 생필품",충청남도 예산군 예산읍 천변로202,041-332-7810,충청남도,예산군,126.8510846,36.67887376
무지개마트신례원점,"쌀, 생수, 부식류 등 생필품",충청남도 예산군 예산읍 신례원로 230,041-335-9220,충청남도,예산군,126.8472734,36.72837249
삽교농협 하나로마트,"쌀, 생수, 부식류 등 생필품",충청남도 예산군 삽교읍 삽교로107,041-337-2080,충청남도,예산군,126.7406332,36.68617675
신양농협 하나로마트 산정점,"쌀, 생수, 부식류 등 생필품",충청남도 예산군 대술면 차동로 1003,041-332-7085,충청남도,예산군,126.8815526,36.6466437
신양농협 하나로마트,"쌀, 생수, 부식류 등 생필품",충청남도 예산군 신양면 청신로 373,041-333-7080,충청남도,예산군,126.8677884,36.6024372
광시농협 하나로마트,"쌀, 생수, 부식류 등 생필품",충청남도 예산군 광시면 예당로 149,041-332-1080,충청남도,예산군,126.7749354,36.54782075
예산농협 하나로마트 대흥점,"쌀, 생수, 부식류 등 생필품",충청남도 예산군 대흥면 중리길 45,041-332-0080,충청남도,예산군,126.790402,36.60648508
예산농협 하나로마트 대률점,"쌀, 생수, 부식류 등 생필품",충청남도 예산군 대흥면 형제고개로 492-2,041-334-5080,충청남도,예산군,126.8407912,36.63977316
삽교농협 하나로마트 응봉점,"쌀, 생수, 부식류 등 생필품",충청남도 예산군 응봉면 응봉로 152,041-333-0080,충청남도,예산군,126.7646096,36.6597183
덕산농협 하나로마트,"쌀, 생수, 부식류 등 생필품",충청남도 예산군 덕산면 예덕로 3,041-337-4082,충청남도,예산군,126.6689646,36.70449439
덕산농협 하나로마트나 박소점,"쌀, 생수, 부식류 등 생필품",충청남도 예산군 덕산면 수덕사로 659,041-337-6080,충청남도,예산군,126.6063255,36.64158303
고덕농협 하나로마트,"쌀, 생수, 부식류 등 생필품",충청남도 예산군 고덕면 황금뜰로 220,041-337-8040,충청남도,예산군,126.704837,36.74567082
신암농협 하나로마트,"쌀, 생수, 부식류 등 생필품",충청남도 예산군 신암면 추사로 109,041-332-9080,충청남도,예산군,126.8259027,36.7355551
오가농협 하나로마트,"쌀, 생수, 부식류 등 생필품",충청남도 예산군 오가면 오가중앙로 80,041-332-8080,충청남도,예산군,126.7983348,36.68741433
진흥할인마트,"생수,쌀,부식류,부탄가스,살균표백제,즉석식품,분유세트,기저귀,모기약등",충청남도 태안군 태안읍 군청10길 12,041-674-4414,충청남도,태안군,126.2972711,36.74666412
소원농협하나로마트,"생수,쌀,부식류,부탄가스,살균표백제,즉석식품,분유세트,기저귀,모기약등",충청남도 태안군 소원면 신덕길 18-1,041-672-5902,충청남도,태안군,126.1961783,36.7588773
원북농협하나로마트,"생수,쌀,부식류,부탄가스,살균표백제,즉석식품,분유세트,기저귀,모기약등",충청남도 태안군 원북면 상리길 7,041-672-3406,충청남도,태안군,126.2574332,36.82324708
근흥농협하나로마트,"생수,쌀,부식류,부탄가스,살균표백제,즉석식품,분유세트,기저귀,모기약등",충청남도 태안군 근흥면 근흥로 700,041-673-9045,충청남도,태안군,126.2297381,36.71519288
안면농협하나로마트,"생수,쌀,부식류,부탄가스,살균표백제,즉석식품,분유세트,기저귀,모기약등",충남 태안군 안면읍 장터로 136-2,041-673-4093,충청남도,태안군,0,0
태안농협하나로마트,"생수,쌀,부식류,부탄가스,살균표백제,즉석식품,분유세트,기저귀,모기약등",충청남도 태안군 태안읍 중앙로 170,041-673-9231,충청남도,태안군,126.3063172,36.74917711
우성정마트,"쌀, 부식류, 생수, 생필품 등",전라북도 전주시 덕진구 벚꽃로 57,063-253-2117,전라북도,전주시,127.1357465,35.82971516
Y식자재마트 우성아파트 상가 지하1층,"쌀, 부식류, 생수, 생필품 등",전라북도 전주시 완산구 중화산로 55,063-226-6297,전라북도,전주시,127.117954,35.81518256
두별마트,"생수, 쌀, 부식 등",전라북도 군산시 양안로 137,063-453-4989,전라북도,군산시,126.7435697,35.97463126
우리마트,"생수, 쌀, 부식 등",전라북도 군산시 오룡로 62-1,063-471-5000,전라북도,군산시,126.7105448,35.98254792
롯데마트 익산점,"생필품, 식료품 등",전라북도 익산시 무왕로 1053,063-830-2520,전라북도,익산시,126.9741273,35.95905617
이마트 익산점,"생필품, 식료품 등",전라북도 익산시 평동로 705,063-860-1051,전라북도,익산시,126.9578628,35.93064982
남중하나마트,"생필품, 식료품 등",전라북도 익산시 선화로 225,063-855-2930,전라북도,익산시,126.9552073,35.94562274
엉터리마트,"생수, 쌀, 부식류, 부탄가스, 생필품 등",전라북도 정읍시 충정로 51,063-532-7773,전라북도,정읍시,126.8698758,35.55845307
마트짱,생필품류,전라북도 남원시 시청로 37-1(향교동),063-625-4200,전라북도,남원시,127.39077,35.41389266
(유)신화,주식류(쌀),전라북도 김제시 순동 황산로 38,063-547-4022,전라북도,김제시,126.9330277,35.81432222
만경공장,주식류(쌀),전라북도 김제시 만경읍 몽포길 52-6,063-542-5006,전라북도,김제시,126.8056208,35.87103927
부량공장,주식류(쌀),전라북도 김제시 부량면 고잔길 46,063-546-9130,전라북도,김제시,126.8244059,35.71684355
청운주유소,유류(석유),전라북도 김제시 용지면 콩쥐팥쥐로 717,063-546-8251,전라북도,김제시,126.9792567,35.81531561
참고을 김제점,"부식류(된장, 간장, 고추장)",전라북도 김제시 순동산단1길 28-17,063-547-6941,전라북도,김제시,126.92349,35.81971887
장터마트,"생수, 쌀, 부식류, 부탄가스, 생필품 등",전라북도 완주군 봉동읍 낙평장기로 58,063-263-4939,전라북도,완주군,127.1632223,35.93696257
하나로마트 진안농협 본점,"생수, 쌀, 부식류, 부탄가스, 생필품 등",전라북도 진안군 진안읍 진무로 1150,063-430-3650,전라북도,진안군,127.4331101,35.79425622
킹할인마트,부식류,전라북도 무주군 안성면 안성로 261,063-323-1185,전라북도,무주군,127.6529306,35.86496367
풀마트,"부식류, 세면도구, 생필품류",전라북도 무주군 무주읍 단천로 104,063-324-3773,전라북도,무주군,127.6622903,36.00731663
무주농협 무주지점 하나로마트,"생수, 쌀, 부식류, 부탄가스, 생필품류",전라북도 무주군 무주읍 당산강변로 196,063-322-1343,전라북도,무주군,127.6625241,36.00469686
구천동농협 구천지점 하나로마트,"생수, 쌀, 부식류, 부탄가스, 생필품류",전라북도 무주군 설천면 구천동1로 15,063-324-4602,전라북도,무주군,127.7794002,35.90556128
구천동농협 무풍지점 하나로마트,"생수, 쌀, 부식류, 부탄가스, 생필품류",전라북도 무주군 무풍면 현내로 183,063-324-4410,전라북도,무주군,127.8459184,35.96962295
무주농협 부남지점 하나로마트,"생수, 쌀, 부식류, 부탄가스, 생필품류",전라북도 무주군 부남면부남로 866-2,063-322-0046,전라북도,무주군,127.5594139,35.97238054
구천동농협 설천본점 하나로마트,"생수, 쌀, 부식류, 부탄가스, 생필품류",전라북도 무주군 설천면 삼도봉로 6,063-324-2501,전라북도,무주군,127.7879014,36.00933686
무주농협 적상지점 하나로마트,"생수, 쌀, 부식류, 부탄가스, 생필품류",전라북도 무주군 적상면 적상산로 48,063-324-5509,전라북도,무주군,127.6599302,35.94500054
무주농협 안성지점 하나로마트,"생수, 쌀, 부식류, 부탄가스, 생필품류",전라북도 무주군 안성면 안성로 280,063-323-2401,전라북도,무주군,127.6543817,35.86605888
반딧불마트,"부식류, 생필품류",전라북도 무주군 무주읍 주계로 32,063-322-5258,전라북도,무주군,127.6537201,36.00497605
유할인마트,"생수, 부식류",전라북도 무주군 안성면 안성로 290-1,063-323-0059,전라북도,무주군,127.6548569,35.86712218
킹할인마트,"생수, 부식류",전라북도 무주군 안성면 안성로 261,063-323-1185,전라북도,무주군,127.6529306,35.86496367
GS무주설천점,"세면도구, 생필품류",전라북도 무주군 설천면 무설로 1587,063-324-8111,전라북도,무주군,127.7874639,36.00929476
무주쌍방울점,속옷류,전라북도 무주군 무주읍 주계로 87-2,063-322-9586,전라북도,무주군,127.6597977,36.00641779
다사랑약국,의약품류,전라북도 무주군 안성면 안성로 295,063-323-0401,전라북도,무주군,127.6546965,35.86773049
설천약국,의약품류,전라북도 무주군 설천면 무설로 1588,063-324-9797,전라북도,무주군,127.787243,36.00916256
장약국,의약품류,전라북도 무주군 무주읍 단천로 99,063-322-2243,전라북도,무주군,127.6622413,36.00801921
무주천막사,천막,전라북도 무주군 무주읍 주계로 83,063-322-3317,전라북도,무주군,127.6593862,36.00638374
농협 하나로 마트,"식료품, 생필품, 생수, 쌀 등",전라북도 장수군 장수읍 장천로 201,063-351-5169,전라북도,장수군,127.5186833,35.65022482
정마트,"생수, 쌀, 부식류, 부탄가스, 생필품 등",전라북도 임실군 임실읍 운수로 33,063-643-0777,전라북도,임실군,127.2844053,35.61447113
순창농협하나로마트,"생수, 쌀, 부식류, 부탄가스, 생필품 등",전라북도 순창군 순창읍 장류로 388,063-652-9961,전라북도,순창군,127.1446964,35.37585636
공무원연금매점,"생수, 쌀, 부식류, 부탄가스, 생필품 등",전라북도 순창군 순창읍 경천로 33,063-650-1982,전라북도,순창군,127.1373695,35.37445478
고창농협 하나로마트,식품 및 생필품,전라북도 고창군 고창읍 성산로 22,063-560-5707,전라북도,고창군,126.6945758,35.43794455
고창농협 고수지점,식품 및 생필품,전라북도 고창군 고수면 황산리 263-1,063-560-3463,전라북도,고창군,126.6788631,35.40881121
선운산농협 아산지점 하나로마트,식품 및 생필품,전북 고창군 아산면 녹두로 792 농협하나로마트,063-562-5007,전라북도,고창군,0,0
대성농협 성송지점,식품 및 생필품,전라북도 고창군 성송면 대성로 793,063-563-1023,전라북도,고창군,126.6465951,35.36633473
대성할인마트,식품 및 생필품,전라북도 고창군 무장면 무장읍성길 13-4,063-563-3115,전라북도,고창군,126.5599006,35.41536067
대산OK할인마트,식품 및 생필품,전라북도 고창군 대산면 대성로 233,063-564-3133,전라북도,고창군,126.5998662,35.33884451
해리농협 상하지점,식품 및 생필품,전라북도 고창군 상하면 상하로 58,063-563-0688,전라북도,고창군,126.492312,35.44332876
고창농협 부안지점,식품 및 생필품,전라북도 고창군 부안면 인촌로 1250,063-562-2078,전라북도,고창군,126.6739163,35.51393304
해리농협 심원지점,식품 및 생필품,전라북도 고창군 심원면 심원로 199,063-563-5006,전라북도,고창군,126.5498894,35.52377727
흥덕농협 하나로마트,식품 및 생필품,전라북도 고창군 흥덕면 흥덕초등길 3,063-562-6323,전라북도,고창군,126.7006764,35.52017119
흥덕농협 성내지점,식품 및 생필품,전라북도 고창군 성내면 시기1길 57,063-560-1871,전라북도,고창군,126.7414159,35.54012468
흥덕농협 신림지점,식품 및 생필품,전라북도 고창군 신림면 신림로 160,063-562-4238,전라북도,고창군,126.7150048,35.48851224
선운산농협 공음지점,식품 및 생필품,전라북도 고창군 공음면 공음길 53,063-562-7889,전라북도,고창군,126.513247,35.37854678
하나로마트 부안농협본점,"생수, 쌀, 부식류, 부탄가스, 생필품 등",전라북도 부안군 부안읍 번영로 140,063-581-1023,전라북도,부안군,126.7357005,35.72568424
OK슈퍼,"생수, 쌀, 부식류, 부탄가스, 생필품 등",전라남도 목포시 양을로 200-1(용당동),061-272-5633,전라남도,목포시,126.3919805,34.81094901
행복플러스마트,"생수, 쌀, 부식류, 부탄가스, 생필품 등",전라남도 여수시 시청로 34(학동),061-685-2040,전라남도,여수시,127.6633257,34.76474444
OK마트,"생수, 쌀, 부식류, 부탄가스, 생필품 등",전라남도 순천시 중앙2길 30,061-742-4104,전라남도,순천시,127.4886924,34.9492822
이루도매센터,"생수, 쌀, 부식류, 부탄가스, 생필품 등",전라남도 나주시 나주로 41-20(송월동),061-333-2418,전라남도,나주시,126.7151442,35.02456651
하나로마트 나주농협본점,"생수, 쌀, 부식류, 부탄가스, 생필품 등",전라남도 나주시 나주로 101(금성동),061-330-6521,전라남도,나주시,126.7170969,35.02796467
유아메디신,응급의약품,"전라남도 나주시 나주로 159(중앙동, 2층)",061-333-8230,전라남도,나주시,126.718438,35.03246583
하나로마트 광양농협로컬푸드직매장본점,"생수, 쌀, 부식류, 부탄가스, 생필품 등",전라남도 광양시 광양읍 신재로 10,061-760-2275,전라남도,광양시,127.5897067,34.97205957
하나로마트 동광양농협본점,"생수, 쌀, 부식류, 부탄가스, 생필품 등",전라남도 광양시 중동로 32(중동),061-791-0700,전라남도,광양시,127.6929081,34.94066093
하나로마트 담양농협본점,"생수, 쌀, 부식류, 부탄가스, 생필품 등",전라남도 담양군 담양읍 죽향문화로 60,061-383-6669,전라남도,담양군,126.9757841,35.31256781
롯데슈퍼(전남곡성가맹점),"생수, 쌀, 부식류, 부탄가스, 생필품 등",전라남도 곡성군 곡성읍 군청로 47,061-363-2273,전라남도,곡성군,127.2909023,35.28149959
구례이마트,"생수, 쌀, 부식류, 부탄가스, 생필품 등",전라남도 구례군 구례읍 중앙로 22,061-780-4959,전라남도,구례군,127.4681961,35.20740938
하나로마트 구례축협본점,"생수, 쌀, 부식류, 부탄가스, 생필품 등",전라남도 구례군 구례읍 봉동길 9,061-782-2211,전라남도,구례군,127.4687463,35.2099704
하나로마트 고흥농협본점,"생수, 쌀, 부식류, 부탄가스, 생필품 등",전라남도 고흥군 고흥읍 여산당촌길 43,061-833-8005,전라남도,고흥군,127.2783699,34.60727768
하나로마트 녹동농협,"생수, 쌀, 부식류, 부탄가스, 생필품 등",전라남도 고흥군 도양읍 우주항공로 21,061-840-7743,전라남도,고흥군,127.1404816,34.52577333
고흥이마트,"생수, 쌀, 부식류, 부탄가스, 생필품 등",전라남도 고흥군 고흥읍 봉동주공길 18,061-834-2377,전라남도,고흥군,127.2889258,34.60659248
뉴고흥마트,"생수, 쌀, 부식류, 부탄가스, 생필품 등",전라남도 고흥군 고흥읍 시장천변길 29-16,061-835-8240,전라남도,고흥군,127.2865226,34.60782338
보성마트,"생수, 쌀, 부식류, 부탄가스, 생필품 등",전라남도 보성군 보성읍 우산길 3,061-853-0104,전라남도,보성군,127.0828439,34.76549786
하나로마트 화순농협본점,"생수, 쌀, 부식류, 부탄가스, 생필품 등",전라남도 화순군 화순읍 쌍충로 74,061-379-1500,전라남도,화순군,126.9822247,35.05876661
LD마트,"생수, 쌀, 부식류, 부탄가스, 생필품 등",전남 장흥군 장흥읍 동교2길 11,061-864-5511,전남,장흥군,126.9064988,34.677953
강진농협 파머스마켓,생필품류,전라남도 강진군 강진읍 보은로 152,061-433-8422,전라남도,강진군,126.7749033,34.63820196
하나로마트 해남농협점,생필품류,전라남도 해남군 해남읍 남부순환로 86,061-536-3774,전라남도,해남군,126.6023284,34.56608539
명지마트,생필품류,전라남도 해남군 해남읍 교육청길 16-10,061-535-5454,전라남도,해남군,126.6076332,34.56902232
하나로마트 영암농협점,"생수, 쌀, 부식류, 부탄가스, 생필품 등",전라남도 영암군 영암읍 낭주로 132,061-470-8882,전라남도,영암군,126.7026635,34.80035014
하나로마트 영암축협점,"생수, 쌀, 부식류, 부탄가스, 생필품 등",전라남도 영암군 영암읍 월출로 6,061-470-1541,전라남도,영암군,126.6860173,34.79483966
하나로마트 무안농협본점,"부식류, 생필품 등",전라남도 무안군 무안읍 면성2길 28,061-454-0880,전라남도,무안군,126.4777194,34.9910176
뉴빅마트,"생수, 부탄가스 등",전라남도 무안군 무안읍 무안로 511,061-453-4636,전라남도,무안군,126.4791338,34.9890284
맘마트,"쌀, 부식류 등",전라남도 무안군 무안읍 불무로 19,061-452-8500,전라남도,무안군,126.4740205,34.98642591
하나로마트 함평농협본점,"생수, 쌀, 부식류, 부탄가스, 생필품 등",전라남도 함평군 함평읍 내바람길 42,061-323-2712,전라남도,함평군,126.5210514,35.06253951
나비마트,"생수, 쌀, 부식류, 부탄가스, 생필품 등",전라남도 함평군 함평읍 광남길 69-3,061-324-9960,전라남도,함평군,126.5193134,35.06414085
파머스마켓,부식류,전라남도 영광군 영광읍 옥당로 151,061-353-0166,전라남도,영광군,126.5007393,35.27542096
마트넷할인마트,"생수, 부식류, 부탄가스 등",전라남도 영광군 영광읍 중앙로 168,061-352-5993,전라남도,영광군,126.5121588,35.27388931
영광축협하나로마트클럽,"주방용품, 생필품 등",전라남도 영광군 영광읍 신남로4길 18,061-353-7990,전라남도,영광군,126.5028138,35.27468446
장성농협하나로마트,"생수, 쌀, 부식류, 부탄가스, 생필품 등",전라남도 장성군 장성읍 청운2길 7,061-393-9998,전라남도,장성군,126.7826736,35.30152999
장보고마트,"생수, 쌀, 부식류, 부탄가스, 생필품 등",전라남도 완도군 완도읍 장보고대로 170,061-554-0034,전라남도,완도군,126.7456295,34.31985068
하나로마트 진도농협점,"생수, 쌀, 부식류, 부탄가스, 생필품 등",전라남도 진도군 진도읍 남동1리 40-13,061-544-4237,전라남도,진도군,126.2756525,34.47324729
하나로마트 압해농협본점,"생수, 쌀, 부식류, 부탄가스, 생필품 등",전라남도 신안군 압해읍 압해로 871-4,061-271-0515,전라남도,신안군,126.3134575,34.86465966
영마트(구룡포점),생활용품,경상북도 포항시 남구 구룡포읍 구룡포리 459-20,054-276-8350,경상북도,포항시,129.5563302,35.9921943
에브리데이연일 식자재마트,생활용품,경상북도 포항시 남구 연일읍 연일중앙로 42,054-286-5100,경상북도,포항시,129.3484876,35.99683071
오천농협하나로마트,생활용품,경상북도 포항시 남구 오천읍 정몽주로 493,054-293-8980,경상북도,포항시,129.4137021,35.96293892
대송프라자,생활용품,경상북도 포항시 남구 대송면 제내길 29,054-285-9191,경상북도,포항시,129.3632862,35.98364415
빅마트(약전점),생활용품,경상북도 포항시 남구 동해면 일월로 119,054-272-0050,경상북도,포항시,129.446122,35.98819584
올마트,생활용품,경상북도 포항시 남구 동해면 일월로 89,054-291-0101,경상북도,포항시,129.4432414,35.98880607
보경할인마트,생활용품,경상북도 포항시 남구 장기면 장기로 11,054-286-0582,경상북도,포항시,129.5156155,35.87744372
하나마트,생활용품,경상북도 포항시 남구 호미곶면 해맞이로 169,054-285-0111,경상북도,포항시,129.5624225,36.07735698
홈마트,생활용품,경상북도 포항시 남구 상공로 51-1,054-275-3181,경상북도,포항시,129.3569665,36.01329851
SP플러스(신풍마트),생활용품,경상북도 포항시 남구 중앙로 122번길 34,054-283-9490,경상북도,포항시,129.3721412,36.02427832
송도할인마트,생활용품,경상북도 포항시 남구 송림로 13(송도동),054-277-9242,경상북도,포항시,129.3757616,36.03094673
콜마트(청림점),생활용품,경상북도 포항시 남구 정몽주로 878,054-292-8066,경상북도,포항시,129.405148,35.99351455
이마트포항점,생활용품,경상북도 포항시 남구 냉천로 10,054-223-1264,경상북도,포항시,129.39763,35.99247528
R-마트,생활용품,경상북도 포항시 남구 효자동길 3,054-282-2678,경상북도,포항시,129.3298122,36.00783102
콜마트(대이점),생활용품,경상북도 포항시 남구 대이로 55-1,054-272-9002,경상북도,포항시,129.3408314,36.02016366
우리홈마트,생활용품,경상북도 포항시 북구 흥해읍 중성로32번길 9,054-262-1944,경상북도,포항시,129.3469667,36.10776427
신포항농협 신광지점 하나로마트,생활용품,경상북도 포항시 북구 신광면 토성길 42,054-243-7993,경상북도,포항시,129.2630096,36.12826194
신포항농협 하나로마트,생활용품,경상북도 포항시 북구 청하면 청하로 203,054-232-4172,경상북도,포항시,129.3388903,36.19749887
킴스마트,생활용품,경상북도 포항시 북구 기계면 협동길 8,054-241-6979,경상북도,포항시,129.2087722,36.07105501
서포항농협하나로마트 죽장점,생활용품,경상북도 포항시 북구 죽장면 새마을로 3604,054-242-3444,경상북도,포항시,129.0947653,36.1601896
서포항농협 기북지점 하나로마트,생활용품,경상북도 포항시 북구 기북면 용기길 1,054-240-0680,경상북도,포항시,129.1664753,36.12893806
한스마트,생활용품,경상북도 포항시 북구 대신로36번길 6,054-247-2022,경상북도,포항시,129.3685552,36.04715148
동아마트,생활용품,경상북도 포항시 북구 양학로 136,054-282-5232,경상북도,포항시,129.3429457,36.03354043
콜마트 ,생활용품,경상북도 포항시 북구 죽도로 28,054-283-0332,경상북도,포항시,129.3636641,36.03399044
우리마트,생활용품,경상북도 포항시 북구 대안길 65,054-231-5557,경상북도,포항시,129.3505806,36.04169943
월드마트,생활용품,경상북도 포항시 북구 우창로 10,054-256-1237,경상북도,포항시,129.3592872,36.0547472
GS수퍼마켓,생활용품,경상북도 포항시 북구 용두산길 3,054-251-4563,경상북도,포항시,129.3826109,36.06413433
리플러스마트 양덕점,생활용품,경상북도 포항시 북구 법원로 140번길 23,054-231-6800,경상북도,포항시,129.3886362,36.08692565
GS THE FRESH,생활용품,경상북도 포항시 북구 삼호로 422,054-251-9080,경상북도,포항시,129.3945769,36.06878375
총각네식자재마트,생필품 등,경상북도 경주시 원지길12번길 37,054-776-9199,경상북도,경주시,129.2197032,35.86554918
하나로마트김천농협점,생필품 등,경상북도 김천시 자산로 147,054-420-2200,경상북도,김천시,128.1173993,36.12401077
롯데마트김천점,생필품 등,경상북도 김천시 시청로 80,054-429-0800,경상북도,김천시,128.1177937,36.13597055
북문시장마트,식료품류,경상북도 안동시 퇴계로 140,054-857-1216,경상북도,안동시,128.7319063,36.56957869
한국종합주방,식기류,경상북도 안동시 광명로 143,054-852-5480,경상북도,안동시,128.6996747,36.56107572
㈜창성공조기계,난방열기기,경상북도 안동시 제비원로 140,054-853-3600,경상북도,안동시,128.7210133,36.56462522
명륜주유소,석유류,경상북도 안동시 퇴계로 134,054-859-8251,경상북도,안동시,128.7317745,36.56899918
경북천막사,천막,경상북도 안동시 대안로 110,054-855-2324,경상북도,안동시,128.7248052,36.56519103
중앙침구사,모포(이불),경상북도 안동시 중앙시장 4길26-37,054-853-6878,경상북도,안동시,128.7238795,36.56477418
삼성의류총판,의료,경상북도 안동시 중앙시장 4길26-41,054-855-1644,경상북도,안동시,128.7240727,36.56476797
파머스마켓,"생필품, 공산품",경상북도 구미시 산업로 310,054-456-7911,경상북도,구미시,128.3537348,36.12220696
이마트구미지점,"생필품, 공산품",경상북도 구미시 구미대로 256,054-467-1052,경상북도,구미시,128.3648927,36.10947359
파머스마켓,개별구호품,경상북도 영주시 구성로 25,054-639-3300,경상북도,영주시,128.6315629,36.79581867
삼양천막사,천막,경상북도 영주시 원당로 363,054-634-2978,경상북도,영주시,128.645151,36.83754601
영천농업협동조합,취사도구 등,경상북도 영천시 완산로 48,054-334-3831,경상북도,영천시,128.9392931,35.96435867
신세계이마트영천점,취사도구 등,경상북도 영천시 최무선로 83,054-330-1200,경상북도,영천시,128.9099879,35.9584334
대경할인유통,취사도구 등,경상북도 영천시 동문길 30,054-333-7373,경상북도,영천시,128.9319116,35.96960139
소원약국,응급의약품,경상북도 영천시 호국로 93,054-332-7003,경상북도,영천시,128.9474976,35.97502046
하나로마트,생필품 등,경상북도 상주시 왕산로 85,054-533-8899,경상북도,상주시,128.1615394,36.40914908
새마을슈퍼,생필품 등,경상북도 문경시 중앙로 59,054-553-1222,경상북도,문경시,128.1956972,36.59130034
유한약국,응급의약품,경상북도 문경시 점촌로 23,054-556-6666,경상북도,문경시,128.2001157,36.59690339
이마트,생필품 등,경상북도 경산시 옥산로227,053-940-1051,경상북도,경산시,128.7200873,35.83491113
홍마트,생필품 등,경상북도 경산시 원효로 36길 49,053-818-4384,경상북도,경산시,128.7540558,35.81556504
파워식자재마트,"쌀, 부식류, 생필품 등",경상북도 군위군 군위읍 군청로 75,054-382-1237,경상북도,군위군,128.5688637,36.23091364
K마트,"쌀, 부식류, 생필품 등",경상북도 군위군 군위읍 중앙길 142,054-382-0440,경상북도,군위군,128.5687697,36.24079989
농협하나로클럽,"쌀, 부식류, 생필품 등",경상북도 군위군 효령면 경북대로 2185,054-380-5500,경상북도,군위군,128.5712992,36.11898189
의성농협하나로마트,"식품, 생필품 등",경상북도 의성군 의성읍 중앙길 6,054-830-2532,경상북도,의성군,128.6992036,36.34482968
안계농협하나로마트,"식품, 생필품 등",경상북도 의성군 안계면 안계길 124,054-861-0378,경상북도,의성군,128.4391348,36.38394146
단북농협하나로마트,"식품, 생필품 등",경상북도 의성군 단북면 이연리 743,054-861-0009,경상북도,의성군,128.404474,36.38815761
청송홈마트,생필품,경상북도 청송군 청송읍 시장길 3,054-873-1231,경상북도,청송군,129.0531455,36.43473423
주왕양국,의약품,경상북도 청송군 청송읍 금월로 267,054-874-8089,경상북도,청송군,129.0560717,36.43286186
홈마트,생필품 등,경상북도 영양군 영양읍 중앙로 100,054-680-6901,경상북도,영양군,129.1134859,36.662295
에이스마트,생필품 등,경상북도 영덕군 영덕읍 도매샛길 39,054-733-8540,경상북도,영덕군,129.3724698,36.41304097
경북천막사,천막,경상북도 청도군 청도읍 중앙로 30,054-373-6631,경상북도,청도군,128.7473343,35.64389649
청도의료기,응급의약품,경상북도 청도군 청도읍 고수구길 12-1,054-373-6370,경상북도,청도군,128.7361215,35.64711178
청도축협하나로마트,"쌀, 부식류, 생필품 등 개별구호물품",경상북도 청도군 청도읍 고수서4길1,054-373-5005,경상북도,청도군,128.7428919,35.64351336
산서농협하나로마트,"쌀, 부식류, 생필품 등 개별구호물품",경상북도 청도군 풍각면 헐티로 229,054-371-1768,경상북도,청도군,128.6161473,35.64073818
산동농협하나로마트,"쌀, 부식류, 생필품 등 개별구호물품",경상북도 청도군 금천면 금천로 35,054-372-3663,경상북도,청도군,128.8916984,35.69192059
대백마트,"식료품, 생필품 등",경상북도 고령군 대가야읍 우륵로 16-1,054-954-9800,경상북도,고령군,128.2696032,35.73126803
드림마트,"식료품, 생필품 등",경상북도 고령군 다산면 상곡2길 7,054-956-6565,경상북도,고령군,128.4488662,35.82355089
이마트에브리데이,"쌀, 부식류, 생필품 등 개별구호물품",성주군 성주읍 성주로 3246,054-931-9710,성주군,성주읍,128.2888145,35.91740155
성주농협하나로마트,"쌀, 부식류, 생필품 등 개별구호물품",성주군 성주읍 성주읍3길 28,054-933-1172,성주군,성주읍,128.288211,35.9200509
농협하나로마트남부지점,생필품 등,경상북도 칠곡군 왜관읍 중앙로 143,054-970-6582,경상북도,칠곡군,128.3984401,35.98802032
예천농협하나로마트,"쌀, 부식류, 생필품 등 개별구호물품",경상북도 예천군 예천읍 시장로 53,054-652-0977,경상북도,예천군,128.4503365,36.65456805
풀마트봉화점,"쌀, 부식류, 생필품 등 개별구호물품",경상북도 봉화군 봉화읍 봉화로 1133,054-673-6767,경상북도,봉화군,128.7340385,36.89155734
월변마트,생필품,경상북도 울진읍 울진중앙로 36,054-783-3343,경상북도,울진읍,129.3976879,36.98536782
경북약국,의약품,경상북도 울진읍 울진중앙로 123-2,054-783-8280,경상북도,울진읍,129.4010283,36.99258772
하나로마트,생필품 등,경상북도 울릉읍 봉래2길 26,054-791-0166,경상북도,울릉읍,130.9091235,37.49346893
동양마트,"쌀, 생수, 부탄가스, 부식 등",경상남도 창원시 의창구 명지로 11 (명서동),055-238-6287,경상남도,창원시,128.641776,35.25071576
남창원농협 농수산물종합유통센터,"쌀, 생수, 부탄가스, 부식 등",경상남도 창원시 성산구 가음로 100(가음동),055-286-1000,경상남도,창원시,128.7031587,35.20401816
365할인마트,"쌀, 생수, 부탄가스, 부식 등(소량)",경상남도 창원시 성산구 성주로 147(남산동),055-263-8822,경상남도,창원시,128.7015523,35.19922275
마산시농업협동조합 하나로마트,"쌀, 생수, 부탄가스, 부식 등",경상남도 창원시 마산합포구 해안대로 31(해운동),055-222-8049,경상남도,창원시,128.5618855,35.18070248
진해농협협동조합 하나로마트,"쌀, 생수, 부식 등",경상남도 창원시 진해구 진해대로776번길 28(석동),055-541-5200,경상남도,창원시,128.698128,35.15660685
홈플러스 진주점,"쌀, 생수, 부탄가스, 부식 등",경상남도 진주시 대신로 304,055-771-8124,경상남도,진주시,128.1177223,35.18757914
이마트 진주점,"쌀, 생수, 부탄가스, 부식 등",경상남도 진주시 진양호로 477,055-749-1050,경상남도,진주시,128.077415,35.19159662
롯데마트 진주점,"쌀, 생수, 부탄가스, 부식 등",경상남도 진주시 동진로 440,055-790-2580,경상남도,진주시,128.1398413,35.18015403
오렌지마트,"쌀, 생수, 부탄가스, 부식 등",경상남도 진주시 모덕로 89,055-757-3380,경상남도,진주시,128.107619,35.18280649
뉴월드마트주식회사,"쌀, 생수, 부탄가스, 락스,  부식류 등",경상남도 통영시 북신시장1길 12(북신동),055-648-7703,경상남도,통영시,128.4274399,34.85670612
㈜롯데마트 통영점,"쌀, 생수, 부탄가스, 락스,  부식류 등",경상남도 통영시 무전대로 65(무전동),055-640-2522,경상남도,통영시,128.4282376,34.86057814
서원유통(주) 삼천포점,"쌀, 생수,  부식 등",경상남도 사천시 새시장길 19,055-835-4115,경상남도,사천시,128.0790958,34.93215786
김해축산농협 하나로마트 본점,"쌀, 생수, 부탄가스, 부식 등",경상남도 김해시 분성로308번길 18(서상동),055-310-5733,경상남도,김해시,128.8798218,35.23142661
김해축산농협 하나로마트 서부점,"쌀, 생수, 부탄가스, 부식 등",경상남도 김해시 함박로 4(외동),055-322-5312,경상남도,김해시,128.8545713,35.23403064
농협하나로클럽,"쌀, 생수, 부탄가스, 부식 등",경상남도 김해시 칠산로 128(신문동),055-310-7011,경상남도,김해시,128.8363814,35.18384795
필프라이스삼광점,"쌀, 생수, 부탄가스, 부식 등",경상남도 밀양시 석정로 115,055-354-3572,경상남도,밀양시,128.7520959,35.49997699
단골약국,"연고, 밴드, 구급상자 등",경상남도 밀양시 북성로 10,055-354-1578,경상남도,밀양시,128.7440151,35.4980498
연초농협 하나로마트 본점,"쌀, 라면, 생수, 부탄가스, 부식 등",경상남도 거제시 연초면 거제북로 26-1,055-636-0778,경상남도,거제시,128.6553491,34.91348088
하나로마트 양산축협중부지점,"쌀, 생수, 라면, 햇반 등",경상남도 양산시 장터2길 4,055-385-3000,경상남도,양산시,129.0373916,35.34325353
농협하나로마트 의령점,"쌀, 생수, 부탄가스, 부식 등",경상남도 의령군 의령읍 의병로14길 29,055-572-9500,경상남도,의령군,128.2597706,35.31717217
함안축협하나로마트,"생수, 부식류, 생필품",경상남도 함안군 가야읍 함안대로 524,055-584-2180,경상남도,함안군,128.4082253,35.27403679
㈜트라이얼코리아 함안점,"생수, 부식류, 생필품",경상남도 함안군 가야읍 함마대로 1636-16,055-585-3792,경상남도,함안군,128.4090351,35.27937953
그린DC마트,"생수, 부식류, 생필품",경상남도 함안군 칠원읍 삼칠로 147,055-586-2222,경상남도,함안군,128.5183001,35.30912001
진마트 창녕점,"쌀, 생수, 부탄가스, 부식 등",경상남도 창녕군 창녕읍 명덕로 27,055-532-6641,경상남도,창녕군,128.4929124,35.54299094
고성축산업협동조합하나로마트,"쌀, 생수, 부탄가스, 부식 등",경상남도 고성군 고성읍 성내로 47(외 1필지),055-673-4666,경상남도,고성군,128.3143892,34.97696976
하나로마트 남해농협,"쌀, 생수, 부탄가스, 부식 등",경상남도 남해군 남해읍 화전로122번길 2 남해농협,055-864-3324,경상남도,남해군,127.8940508,34.84190229
하나로마트 남해축협본점,"쌀, 생수, 부탄가스, 부식 등",경상남도 남해군 남해읍 화전로78번가길 9 남해축협,055-863-4081,경상남도,남해군,127.8947684,34.83866687
남해도매유통,"쌀, 생수, 부탄가스, 부식 등",경상남도 남해군 남해읍 망운로 54-35,055-864-7633,경상남도,남해군,127.8887151,34.83876397
홈마트,"쌀, 생수, 부탄가스, 부식 등",경상남도 남해군 남해읍 화전로13,055-864-8585,경상남도,남해군,127.8974617,34.83335599
농협하나로마트(하동),"쌀, 생수, 부탄가스, 부식 등",경상남도 하동군 하동읍 중앙1길 16 ,055-880-8367,경상남도,하동군,127.7472786,35.06960801
농협하나로마트(화개),"쌀, 생수, 부탄가스, 부식 등",경상남도 하동군 화개면 화개로 38 ,055-880-4912,경상남도,하동군,127.6245348,35.19160258
농협하나로마트(악양),"쌀, 생수, 부탄가스, 부식 등",경상남도 하동군 악양면 악양서로 384 ,055-884-6860,경상남도,하동군,127.7099762,35.16402699
농협하나로마트(적량),"쌀, 생수, 부탄가스, 부식 등",경상남도 하동군 적량면 적량로 99,055-884-6695,경상남도,하동군,127.7759172,35.08354845
농협하나로마트(횡천),"쌀, 생수, 부탄가스, 부식 등",경상남도 하동군 횡천면 문화1길 5,055-880-4517,경상남도,하동군,127.8111747,35.10883722
농협하나로마트(고전),"쌀, 생수, 부탄가스, 부식 등",경상남도 하동군 고전면 재첩길 5-4,055-882-5011,경상남도,하동군,127.804969,34.99781982
농협하나로마트(금남),"쌀, 생수, 부탄가스, 부식 등",경상남도 하동군 금남면 제먼당길 89 ,055-880-4016,경상남도,하동군,127.8598403,34.94983521
농협하나로마트(고남),"쌀, 생수, 부탄가스, 부식 등",경상남도 하동군 금남면 섬진강대로 961,055-880-4074,경상남도,하동군,127.8099218,34.99628251
농협하나로마트(금성),"쌀, 생수, 부탄가스, 부식 등",경상남도 하동군 금성면 신도길 127 ,055-880-4074,경상남도,하동군,127.7905037,34.96409931
농협하나로마트(진교),"쌀, 생수, 부탄가스, 부식 등",경상남도 하동군 진교면 경충로 1059 ,055-880-4142,경상남도,하동군,127.9048222,35.02815119
농협하나로마트(양보),"쌀, 생수, 부탄가스, 부식 등",경상남도 하동군 양보면 진양로 739 ,055-880-4113,경상남도,하동군,127.8442001,35.04695865
농협하나로마트(북천),"쌀, 생수, 부탄가스, 부식 등",경상남도 하동군 북천면 경서대로 2463,055-882-9100,경상남도,하동군,127.893933,35.11528943
농협하나로마트(옥종),"쌀, 생수, 부탄가스, 부식 등",경상남도 하동군 옥종면 옥종중앙길 52-3,055-883-8744,경상남도,하동군,127.8798125,35.18001255
농협하나로마트  산청읍점,"쌀, 라면, 즉석식품, 생수, 부탄가스, 부식 등",경상남도 산청군 산청읍 웅석봉로 3,055-970-2581,경상남도,산청군,127.8773351,35.41644362
함양농협 하나로마트,"쌀, 생수, 부탄가스, 부식 등 생필품",경상남도 함양군 함양읍 함양로 1119-1,055-964-0835,경상남도,함양군,127.7267318,35.51884475
거창축협하나로마트 본점,"쌀, 생수, 부탄가스, 부식 등",경상남도 거창군 거창읍 강변로8길 32-22,055-943-9589,경상남도,거창군,127.9104291,35.68556892
대백마트 상림점,"쌀, 생수, 부탄가스, 부식 등",경상남도 거창군 거창읍 공수들1길 87,055-945-7000,경상남도,거창군,127.9018789,35.68794497
하나로마트 합천농협본점,"쌀, 생수, 부탄가스, 부식 등",경상남도 합천군 합천읍 대야로 904,055-932-0830,경상남도,합천군,128.1641287,35.56876943
롯데슈퍼 합천점,"쌀, 생수, 부탄가스, 부식 등",경상남도 합천군 합천읍 충효로 39,055-931-5601,경상남도,합천군,128.1604841,35.5638547
제주시농협 하나로마트 제주점,"생수, 쌀, 부식류, 생필품 등",제주특별자치도 제주시 남광로206,064-729-1551,제주특별자치도,제주시,126.5531065,33.50378354
제주시농협 하나로마트 한림점,"생수, 쌀, 부식류, 생필품 등",제주특별자치도 제주시 한림읍 한림상로 101,064-795-2005,제주특별자치도,제주시,126.2638787,33.40998855
김녕킹마트,"생수, 쌀, 부식류, 생필품 등",제주특별자치도 제주시 김녕로124,064-784-8789,제주특별자치도,제주시,126.7513079,33.55467976
서귀포산림조합 산림마트,"생수, 쌀, 부식류, 생필품 등",제주특별자치도 서귀포시 중산간동로 8462-2,064-739-9544,제주특별자치도,서귀포시,126.5129644,33.26060906
