시도명,시군구명,시설구분,시설명,상세주소,시설면적,주거능력,관리부서,지자체담당자연락처,경도,위도
충청남도,당진시,기타시설,당진시종합복지타운,충청남도 당진시 시청1로 38(수청동),14655,5636,당진시장,041-350-3642,126.64382259,36.89174066
충청남도,당진시,마을회관,통정1리 마을회관,충청남도 당진시 석문면 보덕포로 1017-3 ,161,49,,,126.59423526,36.98113237
충청남도,당진시,마을회관,시곡2통 마을회관,충청남도 당진시 시곡로 248-25 (시곡동),259,78,,,126.67803084,36.89421507
충청남도,당진시,마을회관,수청1통 마을회관,충청남도 당진시 수청동   124-1,132,40,,,126.6563224,36.88054534
충청남도,당진시,기타시설,당진종합운동장트레이닝센터,충청남도 당진시 고대면 고대로 33,1493,574,당진시장,041-350-3642,126.59611483,36.92292946
충청남도,당진시,학교,고대초등학교 강당,충청남도 당진시 고대면 고대로 206,670,257,이재원,041-350-3642,126.5936197,36.93675739
충청남도,당진시,학교,고산초등학교 강당,충청남도 당진시 고대면 서집들길 55,400,153,이재원,041-350-3642,126.57269884,36.95731589
충청남도,당진시,기타시설,당진근로자종합복지관,충청남도 당진시 송악읍 부곡공단4길 53-13 ,3380,1300,당진시장,041-350-3642,126.77533359,36.96171682
충청남도,당진시,학교,송악고등학교 강당,충청남도 당진시 송악읍 송악로 165,836,321,이재원,041-350-3642,126.70378247,36.91693819
충청남도,당진시,학교,상록초등학교,충청남도 당진시 송악읍 송악로 1024,693,266,박정협,041-350-3642,126.76920472,36.95925184
충청남도,당진시,기타시설,송악교육문화스포츠센터,충청남도 당진시 송악읍 틀모시로 830,6653,2558,당진시장,041-350-3642,126.69115973,36.90711884
충청남도,당진시,"연수,숙박",민간숙박시설,충청남도 당진시 송악읍 반촌리 794-19,21,42,,,126.70266099,36.9020868
충청남도,당진시,마을회관,회태리 마을회관,충청남도 당진시 합덕읍 남부로 1458,50,15,,,126.73667509,36.8241751
충청남도,당진시,마을회관,성동리 마을회관,충청남도 당진시 합덕읍 성동로 98,79,23,,041-350-3643,126.76476182,36.79240018
충청남도,당진시,마을회관,합덕리 마을회관,충청남도 당진시 합덕읍 신촌로 6,132,40,,,126.78755922,36.79396227
충청남도,당진시,"공공시설(국·공립도서관, 공립병원, 시·도민회관, 구민회관 주민체육시설, 노인병원, 어린이도서관 등)",남부문화스포츠센터,충청남도 당진시 합덕읍 굴미1길 222,634,243,,,126.77937573,36.80141512
충청남도,당진시,마을회관,구룡2통 마을회관,충청남도 당진시 도곡길 17(구룡동),116,35,,,126.61080813,36.82942729
충청남도,당진시,마을회관,교동1리 마을회관,충청남도 당진시 합덕읍 합덕교동2길 17,144,44,,,126.77762781,36.80817855
충청남도,당진시,마을회관,구룡1통 마을회관,충청남도 당진시 면천로 3(구룡동),181,55,,,126.60399251,36.83022475
충청남도,공주시,학교,신관초등학교,충청남도 공주시 번영1로 97-13 (신관동),1941,746,이혜진,041-856-1902,127.13889118,36.47563846
충청남도,공주시,"연수,숙박",마루호텔,충청남도 공주시 전막2길 16-1 (신관동),1488,120,,041-853-2600,127.13025706,36.470819
충청남도,공주시,학교,공주정보고등학교,충청남도 공주시 마근동길 29(금흥동),2547,979,양영태,041-856-1674,127.15727003,36.48531954
충청남도,당진시,"공공시설(국·공립도서관, 공립병원, 시·도민회관, 구민회관 주민체육시설, 노인병원, 어린이도서관 등)",정미주민다목적회관,충청남도 당진시 정미면 4.4만세로 713-14 ,842,255,,,126.56836484,36.88731026
충청남도,당진시,학교,천의초등학교 강당,충청남도 당진시 정미면 천평로 30,644,247,이재원,041-350-3642,126.5719662,36.87798455
충청남도,당진시,마을회관,도이1리 마을회관,충청남도 당진시 대호지면 충장로 566-4 ,165,63,이재원,041-350-3642,126.53096845,36.92135458
충청남도,당진시,마을회관,초락2리 마을회관,충청남도 당진시 석문면 초락1로 131,199,60,,,126.50364256,36.99199512
충청남도,당진시,학교,조금초등학교 체육관,충청남도 당진시 대호지면 4.4만세로 23,1038,399,이재원,041-350-3642,126.499669,36.901392
충청남도,당진시,"연수,숙박",민간숙박시설,충청남도 당진시 석문면 난지2길 90-36 ,6,12,,,126.45328618,37.03898244
충청남도,당진시,"연수,숙박",민간숙박시설,충청남도 당진시 석문면 난지1길 329,7,14,,,126.44649394,37.05226081
충청남도,당진시,기타시설,석문교육문화스포츠센터,충청남도 당진시 석문면 대호만로 1543,3600,1384,당진시장,041-350-3642,126.55347563,37.00298034
충청남도,당진시,마을회관,교로2리 마을회관,충청남도 당진시 석문면 새터말길 10,245,74,,,126.5282283,37.03701491
충청남도,당진시,"연수,숙박",민간숙박시설,충청남도 당진시 석문면 석문해안로 19-6 ,7,14,,,126.52854654,37.04155102
충청남도,공주시,학교,반포중학교,충청남도 공주시 반포면 원당1길 28,1686,648,심경화,041-857-3150,127.24302396,36.40411323
충청남도,당진시,학교,삼봉초등학교 체육관,충청남도 당진시 석문면 대호만로 1722-1 ,710,273,이재원,041-350-3642,126.53941423,37.01341966
충청남도,당진시,마을회관,삼봉4리 마을회관,충청남도 당진시 석문면 대호만로 1736-7 ,306,93,,,126.53745595,37.0134539
전라남도,완도군,경로당,중리 경로당,전라남도 완도군 군외면 군외중리1길 31,104,40,권혁,061-550-6341,126.65933969,34.39159961
전라남도,완도군,학교,군외초등학교,전라남도 완도군 군외면 달도길 15-14 ,2107,810,김광일,061-552-5473,126.63691371,34.39797473
전라남도,완도군,경로당,달도 염수리경로당,전라남도 완도군 군외면 염수길 64,100,38,권혁,061-550-6341,126.62516569,34.39971984
전라남도,완도군,경로당,토도리 경로당,전라남도 완도군 군외면 토도길 16-2 ,68,26,권혁,061-550-6341,126.68711602,34.4214627
전라남도,완도군,경로당,교인리 경로당,전라남도 완도군 군외면 청해진북로338번길 3,62,23,황혜숙,061-550-6341,126.67491737,34.38517834
대구광역시,달성군,관공서,구지 보건지소,대구광역시 달성군 구지면 창리로11길 38,564,216,김종일,053-668-3418,128.41347642,35.6589958
서울특별시,성북구,학교,숭덕초등학교,서울특별시 성북구 정릉로 279(정릉동),8313,3197,김만기,02-914-1764,127.01339388,37.6039664
전라남도,진도군,학교,군내중학교 체육관,전라남도 진도군 군내면 금골길 26,879,338,추승완,010-8251-3020,126.2959474,34.5386087
서울특별시,성북구,학교,동신초등학교,서울특별시 성북구 보문사길 50(보문동3가),3370,1296,황인탁,02-925-3442,127.01696208,37.58258162
서울특별시,성북구,학교,청덕초등학교,서울특별시 성북구 정릉로9라길 11(정릉동),14436,5552,박동길,02-924-3409,127.00046026,37.61189643
서울특별시,성북구,학교,삼선초등학교,서울특별시 성북구 보문로29길 106(삼선동3가),4967,1910,정인아,02-742-8792,127.01258136,37.58576597
서울특별시,성북구,관공서,성북구청,서울특별시 성북구 보문로 168(삼선동5가),587,226,김하림,02-2241-4304,127.01688087,37.58945632
서울특별시,성북구,학교,안암초등학교,서울특별시 성북구 고려대로7가길 39(안암동2가),1021,393,정현주,02-928-4403,127.02267096,37.58722701
서울특별시,성북구,학교,정덕초등학교,서울특별시 성북구 아리랑로 63(동소문동7가),11005,4233,송진이,02-926-2367,127.01361967,37.59738949
서울특별시,성북구,학교,경동고등학교,서울특별시 성북구 보문로29길 49(삼선동3가),8411,3235,엄현경,02-928-2077,127.01496957,37.58574448
강원도,영월군,교회,영월대교회,강원도 영월군 영월읍 중앙1로 35,215,82,주영준,033-373-4009,128.46550162,37.18445077
서울특별시,성북구,학교,돈암초등학교,서울특별시 성북구 동소문로13길 38(동소문동6가),10946,4210,양재훈,02-926-2367,127.01285119,37.5933177
강원도,영월군,마을회관,영흥1리마을회관,강원도 영월군 영월읍 영모전길 131,66,25,손경철,010-8276-4041,128.47122132,37.18611754
강원도,영월군,학교,영월초등학교,강원도 영월군 영월읍 하송안길 100,1644,632,고창원,033-370-3005,128.46877899,37.18202065
강원도,영월군,학교,한국소방마이스터고,강원도 영월군 영월읍 영모전길 108,1051,404,이대은,033-370-2535,128.47223725,37.18926602
강원도,영월군,학교,내성초등학교,강원도 영월군 영월읍 내성안길 9,905,348,사공진,033-373-0662,128.47462101,37.19001172
강원도,영월군,학교,영월중·고교,강원도 영월군 영월읍 오무개길 51,1367,525,이근우,033-370-5005,128.47189631,37.19110958
강원도,횡성군,학교,강림초등학교,강원도 횡성군 강림면 태종로강림4길 11,292,88,이소라,033-342-7071,128.12010369,37.35823529
강원도,횡성군,학교,강림중학교,강원도 횡성군 강림면 주천강로 1145,496,150,문태인,033-342-7042,128.12670458,37.36416186
강원도,횡성군,학교,유현초등학교 ,강원도 횡성군 서원면 경강로 711,57,17,임애숙,033-342-0349,127.87514389,37.52657656
서울특별시,성북구,학교,석관고등학교,서울특별시 성북구 한천로70길 30(석관동),1557,599,최현선,02-958-1000,127.06656966,37.60922836
서울특별시,성북구,학교,석관중학교,서울특별시 성북구 한천로 526(석관동),2176,837,이수영,02-962-2275,127.0668317,37.60819593
서울특별시,성북구,학교,석계초등학교,서울특별시 성북구 한천로58길 273(석관동),10236,3937,김순강,02-964-9579,127.06976526,37.608609
서울특별시,성북구,학교,장위중학교,서울특별시 성북구 장위로4길 70(장위동),1983,763,박상선,02-941-1675,127.04158798,37.6113885
서울특별시,성북구,관공서,장위1동주민센터,서울특별시 성북구 장위로 61(장위동),200,77,장위1동주민센터장,02-2241-3227,127.04366287,37.61408291
서울특별시,성북구,학교,장위초등학교,서울특별시 성북구 장월로8가길 41(장위동),19666,7564,김상홍,02-915-4325,127.04982742,37.61210321
서울특별시,성북구,학교,광운초등학교,서울특별시 성북구 한천로 694(장위동),4551,1750,박상옥,02-915-7313,127.0552728,37.61890892
서울특별시,성북구,학교,월곡초등학교,서울특별시 성북구 장월로3길 42(장위동),1419,546,김광옥,02-915-2787,127.04639392,37.60964029
서울특별시,성북구,학교,서울도시과학기술고등학교,서울특별시 성북구 종암로 196(하월곡동),8344,3209,조은중,02-940-2680,127.03189005,37.60732775
서울특별시,성북구,교회,영광교회,서울특별시 성북구 오패산로10길 27(하월곡동),330,127,영광교회,02-916-5004,127.03831268,37.6056354
서울특별시,성북구,교회,월곡감리교회,서울특별시 성북구 화랑로9길 13(하월곡동),132,51,월곡감리교회,02-941-6671,127.04039117,37.60282833
서울특별시,성북구,학교,종암중학교,서울특별시 성북구 종암로5길 80-17 (종암동),1356,522,유의현,02-6749-2032,127.03226624,37.59284562
서울특별시,성북구,학교,숭인초등학교,서울특별시 성북구 오패산로16길 37(하월곡동),12685,4879,이연미,070-7126-8096,127.03840625,37.60893585
서울특별시,성북구,학교,숭곡중학교,서울특별시 성북구 종암로 208(하월곡동),11369,4373,안재영,070-4323-5929,127.03113297,37.60794741
서울특별시,성북구,학교,길음중학교,서울특별시 성북구 길음로 144(길음동),6373,2451,정일수,02-910-8677,127.01709104,37.61442024
서울특별시,성북구,기타시설,길음종합사회복지관,서울특별시 성북구 삼양로8가길 32(길음동),1756,675,장영철,02-985--0161,127.02474624,37.60882475
서울특별시,성북구,학교,숭례초등학교,서울특별시 성북구 종암로5길 14(종암동),680,262,성미경,02-927-5612,127.03493577,37.59491189
서울특별시,강북구,학교,수송초등학교,서울특별시 강북구 한천로124길 14(번동),1344,516,,,127.0333923,37.63721649
서울특별시,성북구,교회,정릉교회,서울특별시 성북구 정릉로 280(정릉동),100,38,정릉교회,02-914-8914,127.01421944,37.60303003
서울특별시,성북구,학교,길음초등학교,서울특별시 성북구 길음로 142(길음동),12533,4820,김종윤,02-918-9984,127.01767246,37.61403616
서울특별시,강북구,"공공시설(국·공립도서관, 공립병원, 시·도민회관, 구민회관 주민체육시설, 노인병원, 어린이도서관 등)",강북구 보훈회관,서울특별시 강북구 오패산로 290-1 (미아동),294,113,,,127.02964047,37.62661428
서울특별시,강북구,학교,수송초등학교,서울특별시 강북구 한천로124길 14(번동),11126,4279,,,127.03326351,37.63735837
서울특별시,강북구,학교,삼양초등학교,서울특별시 강북구 삼양로49길 17(미아동),7661,2947,,,127.01657752,37.62359425
서울특별시,강북구,학교,삼양초등학교,서울특별시 강북구 삼양로49길 17(미아동),4636,1783,,,127.01699956,37.6235858
서울특별시,강북구,학교,성암국제무역고등학교,서울특별시 강북구 도봉로29길 52(미아동),288,110,,,127.02473261,37.62098095
서울특별시,강북구,학교,송중초등학교,서울특별시 강북구 오현로 9(미아동),457,175,,,127.03095788,37.6171559
서울특별시,강북구,학교,삼각산초등학교,서울특별시 강북구 삼양로19길 141(미아동),751,289,,,127.01488092,37.61604207
서울특별시,강북구,학교,창문여자중학교,서울특별시 강북구 월계로 61(미아동),2231,858,,,127.03647513,37.6130504
서울특별시,강북구,학교,송천초등학교,서울특별시 강북구 삼양로20길 29(미아동),2816,1083,,,127.02332359,37.6159297
서울특별시,강북구,학교,삼각산중학교,서울특별시 강북구 삼양로19길 141(미아동),945,363,,,127.01484949,37.61596563
서울특별시,강북구,학교,화계초등학교,서울특별시 강북구 솔매로50가길 25(미아동),8994,3459,,,127.02936374,37.62389115
서울특별시,강북구,학교,창문여자고등학교,서울특별시 강북구 월계로 61(미아동),664,255,,,127.03724947,37.61289779
서울특별시,강북구,학교,송중초등학교,서울특별시 강북구 오현로 9(미아동),752,289,,,127.031357,37.61672012
경상남도,양산시,학교,양산여자고등학교,경상남도 양산시 회현1길 36(교동),787,303,배선웅,055-384-2415,129.02560148,35.34473898
경상남도,양산시,경로당,회현마을경로당,경상남도 양산시 교동1길 58(교동),39,15,김순자,011-9301-9287,129.02324801,35.34733625
경상남도,양산시,학교,증산초등학교,경상남도 양산시 물금읍 새실1길 50,13002,5000,,,129.00762233,35.3160428
경상남도,양산시,학교,범어고등학교,경상남도 양산시 물금읍 신주로 88,743,100,,,129.01874748,35.32985765
경상남도,양산시,학교,영천초등학교,경상남도 양산시 동면 영천4길 6,198,76,진경호,055-383-0130,129.11065547,35.31170843
경상남도,김해시,학교,신어중학교,경상남도 김해시 삼안로195번길 7(삼방동),1719,661,박종주,055-330-3283,128.91143366,35.24487328
경상남도,김해시,"연수,숙박",굿모닝모텔,경상남도 김해시 활천로267번길 3-1 (삼방동),1021,116,이경애,010-3680-3239,128.90827101,35.24326832
경상남도,의령군,학교,가례초등학교,경상남도 의령군 가례면 가례로 128,1920,581,이서연,055-573-2718,128.24682379,35.33310994
경상남도,김해시,"연수,숙박",투헤븐호텔,경상남도 김해시 장유로334번길 8(신문동),1021,128,장병옥,010-3389-1577,128.81567766,35.19657291
경상남도,김해시,학교,삼문초등학교,경상남도 김해시 번화2로 104(삼문동),330,126,박종주,055-330-3283,128.80307516,35.19798354
경상남도,김해시,학교,계동초등학교,경상남도 김해시 계동로 96(대청동),2894,1113,박종주,055-330-3283,128.79564916,35.18502281
경상남도,김해시,마을회관,장재마을회관,경상남도 김해시 한림면 장재로 191,115,44,박종주,055-330-3283,128.816455,35.32274354
경상남도,김해시,학교,한림중학교,경상남도 김해시 한림면 한림로365번길 33,987,379,박종주,055-330-3283,128.79954622,35.32115313
경상남도,김해시,기타시설,불암동체육관,경상남도 김해시 삼안로 36-19 (지내동),1525,586,박종주,055-330-3283,128.91868075,35.23267896
경상남도,김해시,마을회관,장원마을회관,경상남도 김해시 한림면 명동로123번길 24-3 ,115,44,박종주,055-330-3283,128.81811152,35.30573008
경상남도,김해시,경로당,가영경로당,경상남도 김해시 한림면 용덕로236번길 13,98,37,박종주,055-330-3283,128.83095102,35.29765986
경상남도,김해시,관공서,대동면행정복지센터,경상남도 김해시 대동면 대동로 610,194,74,박종주,055-330-3283,128.98050489,35.2423107
경상남도,김해시,학교,대감초등학교,경상남도 김해시 대동면 대동로 993,726,279,박종주,055-330-3283,128.98172281,35.27363562
경상남도,밀양시,학교,밀양여자고등학교,경상남도 밀양시 내일중앙길 10(내일동),1423,547,밀양여자고등학교장,055-354-2106,128.75592263,35.49521159
경상남도,의령군,학교,지정초등학교,경상남도 의령군 지정면 함의로4길 5,2233,676,정복심,055-572-5411,128.38762972,35.38322331
경상남도,의령군,관공서,지정면사무소,경상남도 의령군 지정면 함의로5길 8,775,190,노환,055-570-4660,128.38594379,35.38242458
경상남도,고성군,기타시설,고성실내체육관,경상남도 고성군 고성읍 송학고분로 179,1269,488,체육시설팀,055-670-5846,128.31048631,34.97866005
경상남도,남해군,마을회관,감암마을회관,경상남도 남해군 설천면 노량로 94,253,97,지현호,010-3869-9036,127.86643802,34.93757948
경상남도,하동군,학교,하동중앙중학교,경상남도 하동군 하동읍 연화길 77,1595,613,,,127.74964629,35.0766373
경상남도,하동군,마을회관,동교마을회관,경상남도 하동군 하동읍 동교1길 11-2 ,69,26,허영일,055-884-3144,127.74509628,35.06963803
경상남도,하동군,학교,옥종중학교,경상남도 하동군 옥종면 옥종중앙길 35,1717,660,정왕근,055-882-8024,127.879471,35.179509
경상남도,하동군,"연수,숙박",모텔엘도라도,경상남도 하동군 금남면 경충로 178-18 ,613,68,,,127.88443194,34.95806838
경상남도,하동군,학교,노량초등학교,경상남도 하동군 금남면 제먼당길 60,952,366,유무철,055-882-0041,127.856671,34.952097
경상남도,산청군,마을회관,양촌마을회관,경상남도 산청군 오부면 산수로541번길 83,177,68,마을이장,010-9695-9979,127.86051112,35.45825016
경상남도,산청군,학교,오부초등학교,경상남도 산청군 오부면 오동로 649,668,256,학교장,055-973-8246,127.88669047,35.49944285
경상남도,산청군,마을회관,중촌마을회관,경상남도 산청군 오부면 오동로705번길 67,76,29,마을이장,010-6313-4270,127.89467932,35.50693685
서울특별시,송파구,학교,서울방이초등학교,서울특별시 송파구 위례성대로10길 4(방이동),8198,3153,방이1동장,,127.12081416,37.51303612
서울특별시,송파구,학교,방산고등학교,서울특별시 송파구 오금로27길 18(방이동),8849,3403,방이1동장,,127.1205548,37.50844733
서울특별시,송파구,학교,방이중학교,서울특별시 송파구 오금로11길 64(방이동),12195,4690,,,127.11330058,37.5146942
서울특별시,강동구,학교,둔촌중학교,서울특별시 강동구 진황도로61길 25-30 (둔촌동),1225,471,학교장,,127.14620623,37.53033608
서울특별시,강동구,관공서,강동 어린이 회관,서울특별시 강동구 성내로6길 16(성내동),470,180,관장,,127.12242072,37.52938774
서울특별시,강동구,교회,성내동교회,서울특별시 강동구 풍성로35길 53(성내동),548,210,,,127.12530535,37.5341116
서울특별시,강동구,교회,서울제일교회,서울특별시 강동구 강동대로53길 53(성내동),331,127,김진관집사,010-8717-3654,127.13217362,37.52527745
서울특별시,강동구,학교,성내초등학교,서울특별시 강동구 성내로3길 19(성내동),180,69,학교장,,127.12245578,37.53135774
서울특별시,강동구,관공서,성내1동 주민센터,서울특별시 강동구 성내로 13(성내동),184,70,동장,,127.12219489,37.53052858
경기도,이천시,학교,율면고등학교,경기도 이천시 율면 고당로 48,528,203,안혜숙,031-641-0664,127.54302496,37.08848891
전라남도,장성군,교회,약수교회,전라남도 장성군 북하면 약수2길 15,214,82,권병진,061-392-7469,126.87978071,35.40595521
전라남도,장성군,"연수,숙박",백양관광호텔,전라남도 장성군 북하면 백양로 941,1950,150,김광호,010-7535-4660,126.88136058,35.41107698
전라남도,강진군,학교,성전초등학교 다목적강당,전라남도 강진군 성전면 예향로 17,810,311,홍성식,010-3643-4589,126.70740979,34.69342661
전라남도,해남군,마을회관,남천리마을회관,전라남도 해남군 해남읍 남천길 38,159,61,남천리이장 민삼홍,010-3631-7521,126.5679927,34.5599346
전라남도,해남군,학교,해남고등학교창의예술동,전라남도 해남군 해남읍 명문길 7,330,127,배상훈,010-9602-7809,126.594735,34.577075
전라남도,해남군,학교,해남고등학교본관동,전라남도 해남군 해남읍 명문길 7,823,317,배상훈,010-9602-7809,126.595738,34.577145
경상북도,김천시,학교,문성중학교,경상북도 김천시 영남대로 1992-3 (지좌동),1414,543,백정흠,054-421-2432,128.14630104,36.11813407
경상북도,김천시,학교,김천동부초등학교,경상북도 김천시 황산로 83-15 (지좌동),1046,402,백정흠,054-421-2432,128.13847726,36.11860743
경상북도,김천시,경로당,마잠경로당,경상북도 김천시 마잠길 62(지좌동),139,53,박무근,054-421-2434,128.14494615,36.12243528
경상북도,김천시,경로당,부곡할머니경로당,경상북도 김천시 가메실4길 44-1 (부곡동),125,47,윤채봉,054-421-2402,128.10356388,36.12241913
경상북도,김천시,경로당,중앙경로당,경상북도 김천시 부곡중앙3길 11(부곡동),150,57,윤채봉,054-421-2402,128.10275645,36.12520992
경상북도,김천시,경로당,서부경로당,경상북도 김천시 강각골1길 3-4 (부곡동),166,63,윤채봉,054-421-2402,128.1077248,36.12214393
경상북도,김천시,경로당,문지왈경로당,경상북도 김천시 문지왈4길 43-3 (부곡동),75,28,윤채봉,054-421-2402,128.08997099,36.12081714
경기도,수원시,학교,수일초등학교,경기도 수원시 장안구 수일로 85(파장동),799,307,장영란,031-242-5932,127.00077354,37.31070444
경기도,수원시,학교,장안고등학교,경기도 수원시 장안구 대평로52번길 12(정자동),630,242,신희정,031-250-2901,126.99566502,37.29288241
전라남도,고흥군,마을회관,계매마을회관,전라남도 고흥군 동강면 고흥로 4153-5 ,100,38,곽유선,011-621-8580,127.33545548,34.77074434
전라남도,고흥군,마을회관,덕암마을회관,전라남도 고흥군 동강면 덕암상촌길 10,100,38,정강정,011-621-2407,127.32481619,34.77556069
전라남도,고흥군,경로당,원유둔여경로당,전라남도 고흥군 동강면 원유둔1길 24-18 ,54,20,,061-833-2372,127.33413559,34.7811042
전라남도,고흥군,학교,남양중학교,전라남도 고흥군 남양면 남양로 219-6 ,3502,1346,김종현,061-833-1083,127.35675118,34.73622868
전라남도,고흥군,학교,남양초우도분교,전라남도 고흥군 남양면 우도길 18,120,46,,,127.31432602,34.72229424
전라남도,고흥군,학교,동강중학교,전라남도 고흥군 동강면 계매길 11-2 ,1750,673,임창주,010-2586-3581,127.33663299,34.77138879
전라남도,고흥군,마을회관,내대마을회관,전라남도 고흥군 동강면 내대호수길 159,100,38,이충형,011-9625-1065,127.36943223,34.79876714
전라남도,고흥군,마을회관,원매곡마을회관,전라남도 고흥군 동강면 원매곡길 38,100,38,송기상,011-806-2416,127.33717284,34.80404675
전라남도,고흥군,마을회관,사동마을회관,전라남도 고흥군 동강면 대강사동길 18,100,38,송홍래,010-3644-4430,127.32615258,34.78869829
전라남도,고흥군,기타시설,두남정,전라남도 고흥군 동강면 두산길 10-1 ,87,33,,010-9606-2268,127.32628024,34.78592701
전라남도,고흥군,마을회관,평촌마을회관,전라남도 고흥군 동강면 대강평촌길 6,100,38,최사연,011-640-2003,127.32611804,34.7819573
전라남도,고흥군,마을회관,죽산마을회관,전라남도 고흥군 동강면 서민호길 85,96,36,박기태,010-3636-9524,127.34074989,34.77630436
전라남도,고흥군,마을회관,병동마을회관,전라남도 고흥군 동강면 병풍1길 11,100,38,배재호,010-3484-2067,127.34406684,34.7866028
전라남도,고흥군,경로당,죽산여경로당,전라남도 고흥군 동강면 서민호길 73-3 ,95,36,,061-833-2896,127.33928452,34.77685329
전라남도,고흥군,마을회관,죽동마을회관,전라남도 고흥군 동강면 죽암안길 87-2 ,85,32,김정환,010-3625-2963,127.38750484,34.78629069
전라남도,고흥군,마을회관,옹암마을회관,전라남도 고흥군 동강면 죽암안길 65,85,32,권종갑,010-6329-2711,127.38736287,34.78463412
전라남도,고흥군,마을회관,장동마을회관,전라남도 고흥군 동강면 동강장동길 74,100,38,송기원,011-614-0465,127.35040188,34.80551219
전라남도,고흥군,마을회관,신기마을회관,전라남도 고흥군 대서면 동서로 923,1278,491,송점식,010-2249-8140,127.26474549,34.7410522
전라남도,고흥군,마을회관,안동마을회관,전라남도 고흥군 대서면 기러기길 1,438,168,송형두,010-4644-0079,127.27808666,34.75140468
전라남도,고흥군,마을회관,온동마을회관,전라남도 고흥군 대서면 온동길 104,468,180,이차근,010-9380-3017,127.32787913,34.77089081
전라남도,고흥군,마을회관,동편마을회관,전라남도 고흥군 대서면 동편길 46,264,101,송태호,011-621-3557,127.30775652,34.76940136
전라남도,고흥군,마을회관,금곡마을회관,전라남도 고흥군 대서면 금곡길 103,443,170,송송석,011-3626-2470,127.32228735,34.76958138
전라남도,고흥군,마을회관,송림마을회관,전라남도 고흥군 대서면 송림로 380,465,178,임종율,010-9898-3417,127.28283233,34.73772291
전라남도,고흥군,마을회관,하남마을회관,전라남도 고흥군 대서면 하남길 10-5 ,980,376,박동주,010-4607-3533,127.30354628,34.75899285
전라남도,고흥군,교회,대서교회,전라남도 고흥군 대서면 석장2길 28,491,188,,061-834-0691,127.28501949,34.76865608
전라남도,고흥군,기타시설,팔영농협대서지점,전라남도 고흥군 대서면 석장2길 17,169,65,,,127.28431983,34.76989446
전라남도,고흥군,마을회관,장사마을회관,전라남도 고흥군 대서면 솔로골큰길 39-1 ,272,104,김영환,010-4022-3409,127.28657595,34.73616455
전라남도,고흥군,마을회관,대덕마을회관,전라남도 고흥군 두원면 대덕길 67,85,32,신상호,010-3603-2019,127.2534254,34.67770584
전라남도,고흥군,마을회관,신흥마을회관,전라남도 고흥군 두원면 금산신흥길 214-2 ,114,43,김영식,010-6340-5384,127.24562399,34.68957216
전라남도,고흥군,마을회관,구룡마을회관,전라남도 고흥군 두원면 두원구룡길 46,88,33,김윤수,,127.25791835,34.69175207
전라남도,고흥군,마을회관,예동마을회관,전라남도 고흥군 두원면 예골길 12,88,33,김태길,010-4282-7787,127.24372815,34.65944771
전라남도,고흥군,마을회관,월하마을회관,전라남도 고흥군 두원면 월하길 10,148,56,김동준,010-4618-5181,127.23960781,34.67478545
전라남도,고흥군,마을회관,풍류마을회관,전라남도 고흥군 두원면 풍류2길 51,125,48,송택회,010-8613-7166,127.23458354,34.66203568
전라남도,고흥군,관공서,두원치안센터,전라남도 고흥군 두원면 두원로 456,70,26,,,127.27543544,34.64476614
전라남도,고흥군,관공서,두원면사무소,전라남도 고흥군 두원면 두원로 480-1 ,440,169,,,127.27427213,34.64650764
전라남도,고흥군,교회,두원교회,전라남도 고흥군 두원면 용산신송길 168,180,69,,,127.27572438,34.64492953
전라남도,고흥군,마을회관,금계마을회관,전라남도 고흥군 두원면 금계길 47,108,41,이상균,010-4662-4102,127.27551362,34.64982931
전라남도,고흥군,마을회관,대산마을회관,전라남도 고흥군 두원면 대산길 45,113,43,신 경우,010-4103-4848,127.28644775,34.6510605
전라남도,고흥군,마을회관,신월마을회관,전라남도 고흥군 두원면 새신월길 35,85,32,전일찬,010-8637-4142,127.28722539,34.65914365
전라남도,고흥군,마을회관,영동마을회관,전라남도 고흥군 두원면 영동길 67,92,35,송정윤,010-4616-4406,127.26750172,34.6684474
전라남도,고흥군,마을회관,오수마을회관,전라남도 고흥군 두원면 오수안길 87,100,38,류복래,010-3666-2018,127.2705609,34.66535121
전라남도,고흥군,마을회관,진목마을회관,전라남도 고흥군 두원면 차수진목길 90,92,35,이승우,010-4912-2212,127.2665898,34.68464681
전라남도,고흥군,마을회관,차수마을회관,전라남도 고흥군 두원면 차수진목길 40,86,33,정병채,010-5006-1053,127.26489529,34.68001992
전라남도,고흥군,마을회관,서신마을회관,전라남도 고흥군 두원면 서신길 60-2 ,82,31,김귀근,010-7344-2171,127.28229361,34.6431736
전라남도,고흥군,마을회관,외신마을회관,전라남도 고흥군 두원면 외신길 7,86,33,류계현,010-4627-8722,127.27969769,34.64694411
전라남도,고흥군,기타시설,두원복지관,전라남도 고흥군 두원면 두원로 482,180,69,,,127.27377941,34.6465629
전라남도,고흥군,기타시설,정다운어린이집,전라남도 고흥군 두원면 두원로 458,300,115,,,127.27536956,34.64484653
전라남도,고흥군,마을회관,사포마을회관,전라남도 고흥군 영남면 사포희망길 18-4 ,99,38,정경규,010-3635-5261,127.45258221,34.6035977
전라남도,고흥군,마을회관,양화마을여경로당,전라남도 고흥군 영남면 해맞이로 165,84,32,이길호,010-2622-0039,127.46160644,34.59132909
전라남도,고흥군,마을회관,금오마을회관,전라남도 고흥군 두원면 금오길 19,115,44,박창봉,010-3611-4238,127.31730465,34.65244342
전라남도,고흥군,마을회관,석촌마을회관,전라남도 고흥군 두원면 두원석촌길 1,92,35,장석만,010-5329-4761,127.31228125,34.63686027
전라남도,고흥군,마을회관,상대마을회관,전라남도 고흥군 두원면 상대길 28,88,33,진수자,010-7156-0120,127.3095237,34.63248922
전라남도,고흥군,마을회관,반산마을회관,전라남도 고흥군 두원면 반산길 81,84,32,김용구,010-7387-8995,127.30363382,34.64961961
전라남도,고흥군,마을회관,동촌마을회관,전라남도 고흥군 두원면 두원동촌1길 64,106,40,송연수,010-3601-4258,127.31614975,34.65992759
전라남도,고흥군,마을회관,지등마을회관,전라남도 고흥군 두원면 지등길 29,83,31,김영호,010-4604-9377,127.2968914,34.63560143
전라남도,고흥군,마을회관,용암회관,전라남도 고흥군 영남면 용바위길 29-17 ,40,15,마성환,010-3648-8996,127.50490782,34.59493553
전라남도,고흥군,마을회관,간천마을회관,전라남도 고흥군 영남면 동방간천1길 10,83,31,류한옥,010-4165-9968,127.48522483,34.61068798
전라남도,고흥군,경로당,능정여경로당,전라남도 고흥군 영남면 능정길 24-6 ,52,20,강홍우,010-8614-0438,127.4151262,34.59031441
전라남도,고흥군,마을회관,사도마을여경로당,전라남도 고흥군 영남면 사도진해안길 139,83,31,정원철,010-8604-8012,127.41934415,34.58303993
전라남도,고흥군,마을회관,만호마을회관,전라남도 고흥군 영남면 천사로 645-3 ,83,31,김동일,010-9443-9066,127.41935158,34.59690739
전라남도,보성군,학교,복내중학교,전라남도 보성군 복내면 송재로 1926,430,130,복내중학교,,127.14112637,34.89899087
전라남도,보성군,학교,벌교상업고등학교,전라남도 보성군 벌교읍 홍암로 61,1804,547,벌교상업고등학교,,127.35028541,34.84625576
전라남도,보성군,학교,노동초등학교,전라남도 보성군 노동면 거석길 218,90,27,노동초등학교,,127.0490161,34.82403617
전라남도,보성군,학교,벌교고등학교,전라남도 보성군 벌교읍 채동선로 115,1276,387,벌교고등학교,,127.34323287,34.83378017
전라남도,보성군,학교,벌교중학교,전라남도 보성군 벌교읍 조정래길 86-27 ,711,215,보성중학교,,127.34355522,34.85034588
전라남도,보성군,학교,낙성초등학교,전라남도 보성군 벌교읍 채동선로 706,511,155,낙성초등학교,,127.31418962,34.8765781
전라남도,보성군,학교,홍지 중고등학교,전라남도 보성군 벌교읍 녹색로 5071,1489,451,홍지중고등학교,,127.29700285,34.84141975
전라남도,보성군,학교,보성초등학교,전라남도 보성군 보성읍 송재로 161-8 ,632,191,보성초등학교,,127.07840746,34.77119518
전라남도,고흥군,경로당,신성마을경로당,전라남도 고흥군 영남면 우천신성길 5,66,25,마병수,010-3603-9155,127.47056686,34.62265979
전라남도,고흥군,경로당,간천여경로당,전라남도 고흥군 영남면 동방간천1길 7,87,33,간천마을회,010-4165-9968,127.48549202,34.61085118
전라남도,화순군,학교,화순초등학교,전라남도 화순군 화순읍 동헌길 9-7 ,331,127,신기평,061-370-0101,126.9847122,35.0655126
전라남도,화순군,마을회관,교리 마을회관,전라남도 화순군 화순읍 대교로 30,71,27,이경동,061-374-1413,126.98264418,35.06327957
전라남도,화순군,경로당,공간아파트(남)경로당,전라남도 화순군 화순읍 진각로 181-19 (공간빌리지아파트),89,34,구현우,,126.98481634,35.06709451
전라남도,보성군,학교,득량남초등학교,전라남도 보성군 득량면 월평1길 50,788,239,득량남초등학교,,127.18648542,34.75239815
전라남도,보성군,학교,회천초등학교,전라남도 보성군 회천면 남부관광로 2343,476,144,회천초등학교,,127.08534572,34.6732726
전라남도,화순군,경로당,순곡마을회경로당,전라남도 화순군 화순읍 순곡길 11,34,13,,,126.99782634,35.05529664
전라남도,화순군,마을회관,다지1구 마을회관,전라남도 화순군 화순읍 다산길 23,545,209,박현조,061-374-1614,126.99807261,35.04981247
전라남도,화순군,마을회관,다지2구 마을회관,전라남도 화순군 화순읍 지실길 45,436,167,정영보,016-622-1441,127.00474199,35.03905709
전라남도,화순군,경로당,서라4차경로당,전라남도 화순군 화순읍 알메로 84,101,38,박재관,,126.99536796,35.06265791
전라남도,화순군,경로당,청전경로당,전라남도 화순군 화순읍 광덕로 154,174,66,김중환,,126.99355201,35.05860471
전라남도,화순군,마을회관,일심4구 마을회관,전라남도 화순군 화순읍 일심3길 4,241,92,백종택,061-374-4077,126.99274502,35.05605775
전라남도,화순군,마을회관,일심1구 마을회관,전라남도 화순군 화순읍 용곡1길 21,109,41,김광현,061-374-0875,126.99831449,35.0612472
전라남도,화순군,마을회관,일심2구 마을회관,전라남도 화순군 화순읍 일심동길 16,271,104,임석기,061-375-3582,127.00175633,35.06269856
전라남도,화순군,마을회관,유천2구 마을회관,전라남도 화순군 화순읍 갱정길 3,218,83,이윤자,061-374-3232,126.99334234,35.0638661
전라남도,화순군,마을회관,유천3구 마을회관,전라남도 화순군 화순읍 여단길 8,102,39,이광수,,127.00007684,35.07113676
전라남도,화순군,교회,제7일안식일교회,전라남도 화순군 화순읍 서양로 436,1091,419,신봉섭,061-373-8993,126.99346633,35.06826203
전라남도,화순군,마을회관,훈리 마을회관,전라남도 화순군 화순읍 대교로 71,66,25,김사용,061-374-9303,126.98723748,35.06356259
전라남도,화순군,마을회관,동구리마을회관,전라남도 화순군 화순읍 동구길 7,74,28,정재호,,126.98609017,35.07946337
전라남도,화순군,교회,화순중앙교회,전라남도 화순군 화순읍 매화동길 26-1 ,331,127,정종은,061-372-0311,126.97723623,35.05785805
전라남도,화순군,경로당,대광1차경로당,전라남도 화순군 화순읍 칠충로 53(대광로제비앙),74,28,장명자,,126.97717513,35.05549539
전라남도,화순군,경로당,대광2차경로당,전라남도 화순군 화순읍 칠충로 46,105,40,김대현,,126.97742931,35.05422437
전라남도,화순군,경로당,한국하이빌경로당,전라남도 화순군 화순읍 칠충로 83-11 (한국아델리움),60,23,양회안,,126.97897976,35.0588739
전라남도,화순군,마을회관,대리3구 마을회관,전라남도 화순군 화순읍 둔버리길 22,271,104,김윤호,,126.97167343,35.05525526
전라남도,화순군,마을회관,대리4구 마을회관,전라남도 화순군 화순읍 매화동길 13,66,25,김선수,061-375-0772,126.97845649,35.05723982
전라남도,화순군,학교,화순중학교 강당,전라남도 화순군 화순읍 칠충로 71,1066,410,김철,061-379-0101,126.97822319,35.05661385
전라남도,화순군,마을회관,대리1구 마을회관,전라남도 화순군 화순읍 대동길 6,83,31,나혜심,061-374-3580,126.97377594,35.05654065
전라남도,화순군,마을회관,이십곡1구 마을회관,전라남도 화순군 화순읍 은곡1길 27-1 ,68,26,김재현,061-372-0059,126.97217646,35.08099115
전라남도,화순군,마을회관,이십곡2구 마을회관,전라남도 화순군 화순읍 압곡길 63,165,63,이미자,,126.96923815,35.0696321
전라남도,화순군,마을회관,삼천2구 마을회관,전라남도 화순군 화순읍 하삼길 5-1 ,271,104,김광열,,126.98511373,35.0522698
전라남도,화순군,마을회관,삼천1구 마을회관,전라남도 화순군 화순읍 서양로 159,54,20,장흥기,061-371-7299,126.98931452,35.05205151
전라남도,화순군,마을회관,삼천4구 마을회관,전라남도 화순군 화순읍 시장길 6-1 ,100,38,장광수,061-375-2223,126.98371107,35.05622623
전라남도,화순군,교회,화순장로교회,전라남도 화순군 화순읍 자치샘로 84,331,127,김재식,061-374-7004,126.98904402,35.05955238
전라남도,화순군,경로당,부영2차경로당,전라남도 화순군 화순읍 광덕로 157,72,27,조기영,,126.99153388,35.05861272
전라남도,화순군,경로당,오성2차경로당,전라남도 화순군 화순읍 오성로 460,64,24,문병수,,126.95976476,35.05160439
전라남도,화순군,마을회관,도웅1구 마을회관,전라남도 화순군 화순읍 도웅2길 4,84,32,김형수,,126.94008305,35.05186577
전라남도,화순군,경로당,미륭경로당,전라남도 화순군 화순읍 광덕로 139(미륭타운),89,34,김종현,,126.99152579,35.05748136
전라남도,화순군,마을회관,계소1구 마을회관,전라남도 화순군 화순읍 계량길 8,294,113,김길웅,011-628-7735,126.95889489,35.0523781
전라남도,화순군,마을회관,계소2구 마을회관,전라남도 화순군 화순읍 소곡길 135,80,30,최기오,061-371-2227,126.95031907,35.06258138
전라남도,화순군,마을회관,감도2구 마을회관,전라남도 화순군 화순읍 도방길 46,76,29,정병옥,061-374-7003,126.97478903,35.03844714
전라남도,화순군,마을회관,감도3구 마을회관,전라남도 화순군 화순읍 백련길 55-6 ,49,18,안준기,010-9110-4973,126.9740977,35.03201687
전라남도,화순군,마을회관,계소3구 마을회관,전라남도 화순군 화순읍 평촌길 37,105,40,김숙태,061-372-0032,126.95380701,35.04936608
전라남도,화순군,마을회관,감도1구 마을회관,전라남도 화순군 화순읍 하만길 74,327,125,최수일,061-373-6766,126.98073691,35.03445292
전라남도,화순군,교회,서현교회,전라남도 화순군 화순읍 학포로 2689,661,254,김순철,061-374-4746,126.96488982,35.04947602
전라남도,화순군,경로당,서라3차경로당,전라남도 화순군 화순읍 오성로 556,73,28,김순덕,,126.96991323,35.05248861
전라남도,화순군,마을회관,벽라1구 마을회관,전라남도 화순군 화순읍 벽라1길 20,165,63,정순금,061-374-1356,126.96681419,35.05176511
전라남도,화순군,마을회관,벽라2구 마을회관,전라남도 화순군 화순읍 서라실길 4-8 ,271,104,배영렬,,126.96436921,35.05391708
전라남도,화순군,마을회관,대리2구 마을회관,전라남도 화순군 화순읍 오성로 558(화순 3차 서라아파트),271,104,배남철,,126.96956166,35.05318163
전라남도,화순군,경로당,매화동경로당,전라남도 화순군 화순읍 매화길 27,87,33,류정열,,126.93723478,35.033466
전라남도,화순군,경로당,모산경로당,전라남도 화순군 한천면 모산길 47,66,25,정옥만,010-8484-7806,126.97355892,34.97909572
전라남도,화순군,학교,오성초등학교 다목적강당,전라남도 화순군 화순읍 오성로 516,1162,446,구희정,061-372-7411,126.96500315,35.05206231
전라남도,화순군,마을회관,주도3구 마을회관,전라남도 화순군 화순읍 주도길 23,83,31,주양탁,,126.94413685,35.03160992
전라남도,화순군,마을회관,주도1구 마을회관,전라남도 화순군 화순읍 주도길 144,59,22,주명환,,126.93242016,35.03320983
전라남도,화순군,마을회관,수만1구 마을회관,전라남도 화순군 화순읍 물촌길 22,66,25,김면수,010-2622-1550,127.01711936,35.08815711
전라남도,화순군,마을회관,수만3구 마을회관,전라남도 화순군 화순읍 만수길 42,54,20,문태주,,127.00358907,35.09836926
전라남도,화순군,마을회관,주도2구 마을회관,전라남도 화순군 화순읍 주도길 102-12 ,86,33,양춘승,061-373-3767,126.9352604,35.03322703
전라남도,화순군,마을회관,서태1구 마을회관,전라남도 화순군 화순읍 태곡길 16,102,39,김성순,,126.94951522,35.04012845
전라남도,화순군,마을회관,앵남1구 마을회관,전라남도 화순군 화순읍 앵무동길 15,137,52,탁성섭,061-375-6632,126.9095328,35.05421563
전라남도,화순군,마을회관,앵남2구 마을회관,전라남도 화순군 화순읍 화남길 9-16 ,80,30,손광웅,010-2602-4246,126.90422843,35.04631166
전라남도,화순군,마을회관,내평리 마을회관,전라남도 화순군 화순읍 내평길 36,67,25,박석봉,,126.96748035,35.03699628
전라남도,화순군,마을회관,연양2구 마을회관,전라남도 화순군 화순읍 연양2길 53-3 ,89,34,노문석,061-372-8954,126.9675138,35.03901603
전라남도,화순군,마을회관,연양1구 마을회관,전라남도 화순군 화순읍 연양1길 55-1 ,271,104,송기성,,126.96642612,35.0430614
전라남도,화순군,경로당,산음경로당,전라남도 화순군 한천면 산음길 89-4 ,83,31,윤이임,010-9144-0237,127.02938034,34.97056805
전라남도,화순군,마을회관,도웅2구 마을회관,전라남도 화순군 화순읍 웅곡길 41,83,31,박병수,011-620-3169,126.94431033,35.05409761
전라남도,화순군,마을회관,세량리 마을회관,전라남도 화순군 화순읍 세량길 23,87,33,이종구,,126.91453638,35.07417462
전라남도,화순군,경로당,주암경로당,전라남도 화순군 한천면 주암길 3-3 ,67,25,민병수,010-8908-0271,126.99327969,34.99797299
전라남도,화순군,경로당,오산경로당,전라남도 화순군 한천면 오산길 5,30,11,최재복,010-9617-8470,127.01343131,34.97690089
전라남도,화순군,경로당,결우경로당,전라남도 화순군 한천면 결우길 23,82,31,구제봉,010-2878-0317,126.9967239,34.99059228
전라남도,화순군,경로당,정동경로당,전라남도 화순군 한천면 정동길 125,72,27,구낙림,010-4211-0266,126.98440958,34.98944883
전라남도,화순군,경로당,가옥경로당,전라남도 화순군 한천면 가암길 14,78,30,양복승,010-4623-0580,126.98881833,35.00379688
전라남도,화순군,경로당,한천(여)경로당,전라남도 화순군 한천면 한계2길 14,71,27,서영희,,126.9980947,34.97592312
전라남도,화순군,경로당,한천경로당,전라남도 화순군 한천면 한계2길 14,94,36,위소환,,126.9980947,34.97592312
전라남도,화순군,관공서,한천면복지회관,전라남도 화순군 한천면 죽헌로 259,305,117,김유숙,,126.99815196,34.97741918
전라남도,화순군,경로당,청계경로당,전라남도 화순군 한천면 청계길 61,66,25,조규석,010-4266-0530,127.00261203,34.98241392
전라남도,화순군,경로당,금전경로당,전라남도 화순군 한천면 금전길 72-9 ,88,33,정홍기,,126.97673424,34.97523292
전라남도,화순군,학교,한천초등학교 강당,전라남도 화순군 한천면 청계길 26,761,292,박현순,,127.00411191,34.9792862
전라남도,화순군,경로당,한천면분회경로당,전라남도 화순군 한천면 죽헌로 269,61,23,최재복,,126.9990753,34.97781203
전라남도,화순군,경로당,여경경로당,전라남도 화순군 한천면 모산길 68-3 ,229,88,안남례,010-6610-0154,126.97362814,34.98024517
전라남도,화순군,마을회관,석정리마을회관,전라남도 화순군 춘양면 돌정2길 19,170,65,문제선,061-372-7027,126.95885744,34.95070771
전라남도,화순군,경로당,춘양면경로당,전라남도 화순군 춘양면 돌정3길 10,180,69,김재우,,126.9605491,34.95056982
전라남도,화순군,경로당,도산경로당,전라남도 화순군 한천면 도산길 8,86,33,조영만,010-6411-1839,126.96384567,34.97284208
전라남도,화순군,경로당,헌무정경로당,전라남도 화순군 한천면 헌무정길 69,80,30,구연구,010-9222-6812,127.05875714,34.9663135
전라남도,화순군,경로당,동산경로당,전라남도 화순군 한천면 동산2길 24-2 ,56,21,백종곤,,127.0667389,34.96728245
전라남도,화순군,학교,춘양초등학교,전라남도 화순군 춘양면 춘양로 124,771,296,김병수,061-372-7040,126.95971915,34.94954575
전라남도,화순군,경로당,오곡경로당,전라남도 화순군 한천면 오곡길 3,67,25,박정남,011-9432-2300,127.06579777,34.97364015
전라남도,화순군,경로당,평리경로당,전라남도 화순군 한천면 평리1길 16,30,11,황동대,011-614-6376,127.07707959,34.98837483
전라남도,화순군,경로당,정산경로당,전라남도 화순군 한천면 정산길 51,68,26,윤은식,010-5098-8754,127.07678302,34.97300013
전라남도,화순군,경로당,신촌경로당,전라남도 화순군 한천면 반룡길 41,67,25,이종대,010-4601-9878,127.0733689,34.98375945
전라남도,화순군,경로당,월산경로당,전라남도 화순군 춘양면 월산길 50,78,30,박종진,061-372-7748,126.93199714,34.9214368
전라남도,화순군,경로당,옥평경로당,전라남도 화순군 춘양면 옥평길 2,80,30,노병옥,061-372-7084,126.93596443,34.92508992
전라남도,화순군,경로당,문치경로당,전라남도 화순군 춘양면 문치길 10,75,28,,,126.93606068,34.92819422
전라남도,화순군,교회,월평교회,전라남도 화순군 춘양면 개천로 320,331,127,임봉기,061-373-1320,126.93014997,34.92630472
전라남도,화순군,경로당,회화경로당,전라남도 화순군 춘양면 회화길 88,69,26,이재구,061-373-3738,126.94017766,34.94495372
전라남도,화순군,경로당,칠송경로당,전라남도 화순군 춘양면 칠송길 42,76,29,이일영,,126.94951471,34.95147587
전라남도,화순군,경로당,양곡경로당,전라남도 화순군 춘양면 단양길 78-1 ,94,36,오천호,,126.93034465,34.94988563
전라남도,화순군,경로당,용곡1구경로당,전라남도 화순군 춘양면 용회로 155,69,26,두제희,061-372-5839,126.93005386,34.93869415
전라남도,화순군,경로당,대신경로당,전라남도 화순군 춘양면 밭섶메길 28-3 ,82,31,,,126.94539437,34.9583498
전라남도,화순군,경로당,섶메경로당,전라남도 화순군 춘양면 섶메길 33,70,26,,,126.94014496,34.95855756
전라남도,화순군,경로당,지동경로당,전라남도 화순군 춘양면 지동길 20,99,38,김영호,061-372-7612,126.94229224,34.96691419
전라남도,화순군,교회,춘양교회,전라남도 화순군 춘양면 춘양로 89-1 ,496,190,마병학,061-373-7049,126.96172477,34.95192704
전라남도,화순군,경로당,임동경로당,전라남도 화순군 춘양면 임동길 23,81,31,문제창,061-372-7148,126.95846147,34.95698401
전라남도,화순군,경로당,화곡경로당,전라남도 화순군 춘양면 화곡길 15,82,31,류시환,061-372-7369,126.96029083,34.95503181
전라남도,화순군,경로당,광대월경로당,전라남도 화순군 춘양면 광대월길 74,75,28,,,126.95681569,34.96510131
전라남도,화순군,관공서,춘양면복지회관,전라남도 화순군 춘양면 강변길 17-1 ,1688,649,김명수,061-379-5233,126.96199373,34.95041195
전라북도,군산시,경로당,구암경로당,전라북도 군산시 외산2길 10(구암동),182,55,최연봉,063-446-3928,126.74167342,35.98419577
전라북도,군산시,"공공시설(국·공립도서관, 공립병원, 시·도민회관, 구민회관 주민체육시설, 노인병원, 어린이도서관 등)",금강노인복지관,전라북도 군산시 백릉로 245(구암동),681,206,박희수,063-442-0012,126.75062309,35.98051301
전라북도,군산시,학교,구암초등학교,전라북도 군산시 경암3길 64-1 (경암동),886,268,김세찬,063-445-2405,126.73093241,35.98013799
전라북도,군산시,학교,군산동초등학교,전라북도 군산시 번영로 181(조촌동),838,180,황숙희,,126.738641,35.96547
전라북도,군산시,학교,경포초등학교,전라북도 군산시 백릉로 75(조촌동),275,150,이미란,063-445-0611,126.73495364,35.97620759
전라북도,군산시,경로당,중동경로당,전라북도 군산시 서래1길 16-1 (중동),121,36,김진수,063-445-8337,126.72582521,35.98212498
전라북도,군산시,경로당,중금암경로당,전라북도 군산시 선창2길 17(중동),99,29,하승호,063-442-7402,126.72286568,35.98599373
전라북도,군산시,"공공시설(국·공립도서관, 공립병원, 시·도민회관, 구민회관 주민체육시설, 노인병원, 어린이도서관 등)",군산노인종합복지관,전라북도 군산시 둔배미길 29(중앙로2가),295,95,신성호,063-442-4227,126.715539,35.98315
전라북도,군산시,학교,풍문초등학교,전라북도 군산시 풍마길 22(장재동),753,228,김수동,063-445-1493,126.71821842,35.97705258
전라북도,군산시,관공서,흥남동주민센터,전라북도 군산시 월명로 377(미원동),442,133,최우진,063-454-7492,126.71524395,35.97784301
전라북도,군산시,"공공시설(국·공립도서관, 공립병원, 시·도민회관, 구민회관 주민체육시설, 노인병원, 어린이도서관 등)",군산시자원봉사센터,전라북도 군산시 삼화안길 9(문화동),183,55,유창록,063-451-1365,126.707447,35.974749
전라북도,군산시,"공공시설(국·공립도서관, 공립병원, 시·도민회관, 구민회관 주민체육시설, 노인병원, 어린이도서관 등)",군산시 보훈회관,전라북도 군산시 팔마로 64(문화동),157,47,정명화,063-461-0645,126.70814485,35.97340916
전라북도,군산시,경로당,사랑경로당,전라북도 군산시 삼학3길 48-4 (삼학동),70,22,김지숙,010-8645-8403,126.71450059,35.97696185
전라북도,군산시,경로당,문화경로당,전라북도 군산시 서흥안2길 40(문화동),83,25,정재복,063-462-3335,126.7079964,35.97327614
전라북도,군산시,학교,군산미장초등학교,전라북도 군산시 미장안길 14(미장동),536,162,이재목,,126.72735397,35.96558512
전라북도,군산시,경로당,미장경로당,전라북도 군산시 미장서로 136-1 (미장동),83,25,이영배,010-8732-2125,126.7237565,35.97127094
전라북도,군산시,"공공시설(국·공립도서관, 공립병원, 시·도민회관, 구민회관 주민체육시설, 노인병원, 어린이도서관 등)",군산실내배드민턴장,전라북도 군산시 남수송5길 39(수송동),2966,898,이철형,063-454-7645,126.70886376,35.9625194
전라북도,군산시,경로당,미래경로당,전라북도 군산시 진포1길 57(수송동),71,21,이길래,010-5671-6293,126.72129074,35.97120418
전라북도,군산시,관공서,수송동주민센터,전라북도 군산시 동수송1길 7(수송동),289,87,김종필,,126.71773442,35.96469729
전라북도,군산시,"공공시설(국·공립도서관, 공립병원, 시·도민회관, 구민회관 주민체육시설, 노인병원, 어린이도서관 등)",군산시 보건소,전라북도 군산시 수송동로 58(수송동),151,45,전형태,063-460-3230,126.720164,35.964933
전라북도,군산시,경로당,신덕경로당,전라북도 군산시 진포3길 34(수송동),54,16,이은덕,010-6811-1210,126.71918204,35.97290713
전라북도,군산시,경로당,정인리경로당,전라북도 군산시 동메2길 25(수송동),117,35,최규선,010-8013-0036,126.71353256,35.97117488
전라북도,군산시,학교,군산수송초등학교,전라북도 군산시 월명로 312(수송동),714,216,김용석,063-465-2822,126.71636657,35.972309
전라북도,군산시,학교,군산아리울초등학교,전라북도 군산시 수송동로 90(수송동),730,221,조연순,,126.72031576,35.96754317
전라북도,군산시,학교,군산진포중학교,전라북도 군산시 진포3길 66(수송동),730,221,진송철,,126.72275245,35.97243377
전라북도,군산시,경로당,청풍경로당,전라북도 군산시 번영로 329(사정동),99,30,박영서,063-452-1787,126.75322166,35.96400465
전라북도,군산시,경로당,내사경로당,전라북도 군산시 내사길 25-9 (사정동),112,33,문종복,063-452-8653,126.7432773,35.96341937
전라북도,군산시,학교,군산푸른솔초등학교,전라북도 군산시 축동로 20(수송동),620,187,최병화,,126.71135162,35.9612043
전라북도,군산시,학교,전북외국어고등학교,전라북도 군산시 해망로 525(소룡동),1473,446,정진관,063-465-8691,126.684568,35.981515
전라북도,군산시,학교,소룡초등학교,전라북도 군산시 설림길 55(소룡동),874,190,최성덕,468-9105,126.68303356,35.97420443
전라북도,군산시,관공서,소룡동행정복지센터,전라북도 군산시 설림안4길 30(소룡동),500,151,이영재,,126.68385986,35.97376767
전라북도,군산시,경로당,서개정경로당,전라북도 군산시 논절길 23(개정동),83,25,이원자,010-6612-1995,126.75878246,35.97302866
전라북도,군산시,"공공시설(국·공립도서관, 공립병원, 시·도민회관, 구민회관 주민체육시설, 노인병원, 어린이도서관 등)",군산시평생학습관,전라북도 군산시 황룡로 43(미룡동),144,43,조승현,,126.69005147,35.94476618
전라북도,군산시,학교,군산월명중학교,전라북도 군산시 설림5길 90(소룡동),1984,500,신옥진,063-462-3333,126.68009027,35.97472456
전라북도,군산시,관공서,나운2동주민센터,전라북도 군산시 나운3길 16(나운동),295,89,장지희,063-454-7700,126.69962889,35.96494303
전라북도,군산시,학교,미룡초등학교,전라북도 군산시 대학로 498-10 (미룡동),337,102,이경아,063-463-4876,126.68453736,35.94997508
전라북도,군산시,학교,군산금강중학교,전라북도 군산시 황룡2길 61(미룡동),825,250,,063-454-7773,126.68854789,35.94135498
전라북도,군산시,관공서,나운1동행정복지센터,전라북도 군산시 신설3길 3(나운동),66,20,오진이,063-454-7670,126.6948345,35.9668337
전라북도,군산시,학교,신풍초등학교,전라북도 군산시 하나운3길 7(나운동),675,200,이성은,063-465-1001,126.69572168,35.96457633
전라북도,군산시,학교,나운초등학교,전라북도 군산시 신설로 50(나운동),813,246,이정수,063-465-8102,126.69267017,35.97237034
전라북도,군산시,학교,진포초등학교,전라북도 군산시 나운안길 54(나운동),798,241,김지유,,126.704985,35.966056
전라북도,군산시,학교,신흥초등학교,전라북도 군산시 백토로 129(나운동),930,281,김지철,,126.70655904,35.96758436
전라북도,군산시,경로당,풍성경로당,전라북도 군산시 회현면 회미로 513,68,20,김일환,063-466-8022,126.77005916,35.91653033
전라북도,군산시,학교,군산초등학교,전라북도 군산시 지곡로 68(지곡동),619,187,정상준,063-445-2475,126.71050195,35.94855307
전라북도,군산시,학교,군산여자상업고등학교,전라북도 군산시 신지길 42-8 (지곡동),1315,398,박용범,,126.70784932,35.95709152
전라북도,군산시,학교,지곡초등학교,전라북도 군산시 신지길 26(지곡동),789,239,오영환,,126.70657678,35.95749132
전라북도,군산시,학교,회현중학교,전라북도 군산시 회현면 대위로 426,871,264,김옥빈,454-5008,126.755029,35.913372
전라북도,군산시,학교,회현초등학교,전라북도 군산시 회현면 회현로 139,648,196,주중일,,126.752181,35.915491
전라북도,군산시,관공서,옥산면사무소,전라북도 군산시 옥산면 산성로 200,82,24,김순옥,063-454-7046,126.74831888,35.93949062
전라북도,군산시,학교,당북초등학교,전라북도 군산시 옥산면 백석로 40,675,204,권영숙,,126.717333,35.946821
전라북도,군산시,경로당,월평경로당,전라북도 군산시 회현면 대위로 539,80,24,김봉도,010-2278-6451,126.74963483,35.9041785
전라북도,군산시,학교,회현초등학교,전라북도 군산시 회현면 회현로 139,368,111,주중일,466-5637,126.752199,35.914972
전라북도,군산시,경로당,내초경로당,전라북도 군산시 내초언덕길 63(내초동),170,51,이상규,063-467-2436,126.59111814,35.9523231
전라북도,군산시,학교,옥구초등학교,전라북도 군산시 옥구읍 옥구로 50,568,172,주광순,063-464-8511,126.68042041,35.92207168
전라북도,군산시,관공서,옥구읍사무소,전라북도 군산시 옥구읍 옥구로 6,870,263,김영섭,,126.68524311,35.92299762
전라북도,군산시,학교,미성초등학교,전라북도 군산시 칠성2길 27(산북동),687,208,유종우,063-464-7546,126.674304,35.958114
전라북도,군산시,학교,문창초등학교,전라북도 군산시 공항로 394(산북동),831,251,고경례,063-465-5008,126.65566646,35.9563451
전라북도,군산시,학교,산북초등학교,전라북도 군산시 원산북2길 29(산북동),788,238,정경남,063-465-2415,126.68099708,35.96405021
전라북도,군산시,관공서,미성동주민센터,전라북도 군산시 산북동   2479-3,171,52,이득만,,126.65767394,35.95828712
전라북도,군산시,"공공시설(국·공립도서관, 공립병원, 시·도민회관, 구민회관 주민체육시설, 노인병원, 어린이도서관 등)",설림도서관,전라북도 군산시 설림길 25(소룡동),473,143,이명례,063-454-5710,126.68434898,35.97304779
전라북도,군산시,학교,새만금초등학교,전라북도 군산시 요죽5길 42(오식도동),676,204,박양배,063-469-7607,126.56156362,35.96715877
충청남도,계룡시,학교,계룡고등학교,충청남도 계룡시 두마면 서금암로 89,10741,4131,류연경,042-840-5311,127.25821482,36.26791283
충청남도,계룡시,학교,엄사초등학교,충청남도 계룡시 엄사면 번영3길 30,9592,3689,박수현,042-841-4497,127.23758047,36.28638401
충청남도,계룡시,학교,신도초등학교,충청남도 계룡시 엄사면 번영3길 82,608,233,김다흰,042-841-2898,127.23592929,36.28220628
충청남도,계룡시,"연수,숙박",화이트모텔,충청남도 계룡시 계룡대로 327(금암동),1746,70,,,127.25446438,36.27442492
충청남도,계룡시,학교,두마초등학교,충청남도 계룡시 두마면 팥거리로 160,8795,3382,권정연,042-841-8014,127.26997701,36.26997812
충청남도,계룡시,학교,금암초등학교,충청남도 계룡시 장안로 104(금암동),7259,2791,김진주,042-840-6776,127.24609159,36.270787
충청남도,계룡시,"연수,숙박",오페라모텔,충청남도 계룡시 금암로 130-17 (금암동),1116,48,,,127.2564413,36.27492973
충청남도,논산시,학교,채운초등학교 강당,충청남도 논산시 채운면 채운로 112,740,284,황다나,041-746-8897,127.06801445,36.16938446
충청남도,계룡시,학교,계룡중학교,충청남도 계룡시 서금암5길 17(금암동),635,244,김은경,042-840-5665,127.25524027,36.26773263
충청남도,논산시,학교,가야곡초등학교 강당,충청남도 논산시 가야곡면 덕은로 160,543,208,허진아,041-746-8837,127.16858391,36.14376676
충청남도,논산시,학교,은진초등학교 강당,충청남도 논산시 은진면 매죽헌로25번길 1,1539,591,박은경,041-746-8867,127.10675279,36.16815624
충청남도,논산시,학교,이화초등학교,충청남도 논산시 채운면 채운로 350,135,51,황다나,041-746-8897,127.07149173,36.15059831
전라북도,군산시,경로당,표산경로당,전라북도 군산시 회현면 표산길 29,55,16,임재함,063-466-8234,126.776613,35.928614
전라북도,군산시,학교,임피초등학교,전라북도 군산시 임피면 동헌길 38,339,102,김성용,063-453-2011,126.84958303,35.98795616
전라북도,군산시,관공서,임피면사무소,전라북도 군산시 임피면 남상2길 1,338,102,,,126.85033548,35.98259494
충청남도,논산시,학교,건양고등학교 강당,충청남도 논산시 양촌면 황산벌로 486-21 ,4584,1763,장유현,041-746-8808,127.23436929,36.14116846
충청남도,당진시,학교,원당초등학교 체육관,충청남도 당진시 밤절로 31(원당동),2350,903,이재원,041-350-3642,126.63946869,36.90233875
충청남도,당진시,학교,원당중학교 체육관,충청남도 당진시 밤절로 72-34 (원당동),2800,1076,이재원,041-350-3642,126.64078075,36.90023175
충청남도,당진시,마을회관,채운5통 마을회관,충청남도 당진시 운학길 30-2 (채운동),238,72,,,126.62281799,36.89440565
충청남도,당진시,경로당,채운3통 경로당,충청남도 당진시 백암로 154-2 (채운동),166,50,,,126.62370682,36.88813108
충청남도,당진시,마을회관,채운1통 마을회관,충청남도 당진시 운곡2길 18-9 (채운동),187,57,,,126.61291861,36.89134153
충청남도,당진시,마을회관,채운9통 마을회관,충청남도 당진시 백암로 246(채운동),108,33,,,126.62524764,36.89191739
충청남도,당진시,마을회관,채운4통 마을회관,충청남도 당진시 당진시장길 32(채운동),58,18,,,126.62609918,36.88913703
충청남도,당진시,마을회관,채운2통 마을회관,충청남도 당진시 대호만로 35-4 (채운동),189,57,,,126.62072702,36.89868964
충청남도,당진시,학교,계성초등학교 체육관,충청남도 당진시 당진중앙1로 290(읍내동),703,270,이재원,041-350-3642,126.63794733,36.89870121
충청남도,당진시,기타시설,당진시 청소년문화의집,충청남도 당진시 무수동7길 142-26 (읍내동),1258,483,이재원,041-350-3642,126.64151795,36.89307323
충청남도,당진시,기타시설,당진교육문화스포츠센터,충청남도 당진시 당진중앙2로 132-30 (읍내동),11356,4367,당진시장,041-350-3642,126.63206592,36.89400099
충청남도,당진시,학교,당진중학교,충청남도 당진시 운학길 41(채운동),813,246,,,126.62185494,36.8931152
충청남도,계룡시,"연수,숙박",호텔더존,충청남도 계룡시 엄사면 번영1길 5-20 ,1128,50,,,127.24288696,36.28952189
충청남도,계룡시,학교,용남초등학교,충청남도 계룡시 신도안면 신도안1길 88,8868,3410,최보헌,042-551-1504,127.24455463,36.2990749
충청남도,계룡시,학교,용남고등학교,충청남도 계룡시 신도안면 신도안1길 32,859,330,이한진,042-717-2100,127.24496105,36.29431894
충청남도,당진시,학교,성당초등학교,충청남도 당진시 역천로 222(사기소동),615,186,,,126.6044393,36.83678597
충청남도,당진시,마을회관,사기소1리 마을회관,충청남도 당진시 동산길 17(사기소동),171,65,,,126.61437228,36.85269948
충청남도,당진시,마을회관,사기소2통 마을회관,충청남도 당진시 사기소길 25(사기소동),161,49,,,126.60601255,36.83843383
충청남도,계룡시,학교,엄사중학교,충청남도 계룡시 엄사면 번영11길 3,2172,835,이진원,042-841-9675,127.23014289,36.28759253
충청남도,당진시,"공공시설(국·공립도서관, 공립병원, 시·도민회관, 구민회관 주민체육시설, 노인병원, 어린이도서관 등)",여성의전당 강당,충청남도 당진시 남부로 8(행정동),341,131,이재원,041-350-3642,126.61669326,36.88283114
충청남도,당진시,마을회관,용연3통 마을회관,충청남도 당진시 용연로 280(용연동),171,52,,,126.63981277,36.86074201
충청남도,당진시,마을회관,용연2통 마을회관,충청남도 당진시 용연로 161(용연동),170,52,,,126.62745086,36.86406013
충청남도,당진시,마을회관,용연1통 마을회관,충청남도 당진시 용연로 43(용연동),170,52,,,126.61592703,36.86778368
충청남도,당진시,마을회관,행정1통 마을회관,충청남도 당진시 옥현길 46(행정동),163,49,,,126.61611609,36.87680087
충청남도,당진시,마을회관,행정2통 마을회관,충청남도 당진시 원행정길 31(행정동),214,65,,,126.60973949,36.87910595
충청남도,당진시,기타시설,당진국민체육센터,충청남도 당진시 시청1로 30(수청동),4985,1917,당진시청,041-350-3642,126.64437355,36.89364658
충청남도,당진시,마을회관,대덕1통 마을회관,충청남도 당진시 오류동길 92(대덕동),263,80,,,126.65264402,36.87940699
충청남도,당진시,마을회관,대덕2통 마을회관,충청남도 당진시 아미로 789-6 (대덕동),229,69,,,126.63307231,36.87837388
충청남도,당진시,마을회관,대덕3통 마을회관,충청남도 당진시 천변1길 218-4 (대덕동),69,21,,,126.63894545,36.88617358
충청남도,공주시,학교,경천초등학교,충청남도 공주시 계룡면 신원사로 112,1906,733,김순복,041-855-2114,127.14960613,36.32446887
충청남도,공주시,학교,계룡초등학교,충청남도 공주시 계룡면 영규대사로 459,1377,529,백남화,041-857-5020,127.14130035,36.35768145
충청남도,공주시,학교,반포초등학교,충청남도 공주시 반포면 반포초교길 97,658,199,,,121.0,31.0
충청남도,공주시,학교,충남과학고등학교,충청남도 공주시 반포면 금벽로 1351-15 ,1000,384,박정우,041-8582-1428,127.21887739,36.42668981
충청남도,공주시,마을회관,견동리경로당,충청남도 공주시 탄천면 진주고개길 9-4 ,84,32,김태환,041-840-2754,127.00002416,36.355911
충청남도,공주시,마을회관,대학1리마을회관,충청남도 공주시 탄천면 합천1길 2,101,38,김태환,041-840-2754,127.01483723,36.3784612
충청남도,공주시,마을회관,내흥1리마을회관,충청남도 공주시 계룡면 왕흥장악로 427,120,46,홍익표,041-840-8864,127.17851344,36.4036839
충청남도,공주시,마을회관,중장2리마을회관,충청남도 공주시 계룡면 농바위길 1-3 ,90,34,전종환,041-840-8862,127.16735689,36.3694455
전라남도,영암군,학교,영암초등학교,전라남도 영암군 영암읍 영암초중고길 1,1012,389,학교장,061-473-0784,126.68651362,34.79661929
전라남도,나주시,학교,나주중앙초등학교 강당,전라남도 나주시 대호길 24(성북동),8137,3129,조영수,061-333-2181,126.71940788,35.03834096
전라남도,나주시,관공서,중부노인복지관,전라남도 나주시 금성길 74(성북동),2543,978,송덕희,061-333-8900,126.71765624,35.0355857
충청남도,공주시,학교,덕암초등학교,충청남도 공주시 유구읍 금계산로 943,1569,603,이경준,041-841-6352,126.9702185,36.63002107
충청남도,공주시,학교,이인초등학교,충청남도 공주시 이인면 은행길 56,691,265,변혜림,041-857-4014,127.06016842,36.36222798
충청남도,공주시,학교,탄천초등학교,충청남도 공주시 탄천면 통산로 168,1186,456,서나영,041-853-5161,127.03084941,36.33112052
충청남도,공주시,"연수,숙박",공주유스호스텔,충청남도 공주시 탄천면 삼거리1길 8-1 ,3744,1100,,041-852-1212,127.04692284,36.33336705
전라남도,광양시,마을회관,석정회관,전라남도 광양시 광양읍 석정길 15-1 ,166,63,우성순,010-8622-7182,127.60479001,34.96574813
전라남도,광양시,학교,광양동초등학교,전라남도 광양시 광양읍 읍성길 61,5477,2106,,,127.58725847,34.97104717
전라남도,광양시,학교,광양서초등학교,전라남도 광양시 광양읍 숲샘길 29,30350,11673,,,127.582993,34.97121
충청남도,보령시,학교,대남초등학교,충청남도 보령시 남대천로 22(대천동),822,316,신종일,010-3467-5567,126.59439859,36.35265364
충청남도,보령시,학교,대천여자고등학교,충청남도 보령시 중앙로 264(대천동),1194,459,김기범,010-5209-6303,126.58417428,36.36064366
충청남도,공주시,학교,유구초등학교,충청남도 공주시 유구읍 유구초교길 12,797,306,이정은,041-841-1302,126.9493164,36.55381003
충청남도,공주시,학교,구산초등학교,충청남도 공주시 유구읍 유구마곡사로 61-1 ,2023,778,김종운,041-841-2169,126.95738864,36.55156986
전라남도,광양시,마을회관,본정회관,전라남도 광양시 광양읍 본정길 1,227,87,고영석,061-762-2605,127.62500202,34.95403341
전라남도,광양시,학교,광양마로초등학교,전라남도 광양시 광양읍 와룡길 60,9914,3813,마로초등학교장,061-762-1776,127.60673859,34.96006959
전라남도,광양시,학교,용강초등학교,전라남도 광양시 광양읍 용강1길 40,16781,6454,,,127.610673,34.976191
충청남도,공주시,학교,마곡초등학교,충청남도 공주시 사곡면 운정길 29-10 ,1534,590,노윤호,041-8941-8101,127.01816159,36.55887705
충청남도,공주시,학교,신풍초등학교,충청남도 공주시 신풍면 신풍길 50-11 ,670,257,임속근,041-841-0892,126.95298398,36.51751406
충청남도,보령시,학교,대관초등학교,충청남도 보령시 대관초등길 97(대천동),648,249,조미숙,010-6311-9782,126.58440385,36.35701117
충청남도,보령시,학교,대천초등학교,충청남도 보령시 대천로 59(대천동),1541,592,조성수,010-5436-7851,126.59933823,36.35413202
경상북도,경주시,학교,모아초등학교,경상북도 경주시 천북면 산업로 4974-5 ,126,49,,,129.24630943,35.91976845
경상북도,경주시,학교,신라공업고등학교,경상북도 경주시 천북면 천북로 41-21 ,756,291,,,129.24242529,35.8939245
충청남도,공주시,학교,우성중학교,충청남도 공주시 우성면 구레말길 86,665,255,박흥서,041-855-7025,127.05434243,36.46325965
충청남도,공주시,마을회관,용봉리마을회관,충청남도 공주시 우성면 신영골길 1-8 ,195,75,윤석규,041-840-2836,127.02088039,36.44150528
충청남도,공주시,마을회관,봉현리마을회관,충청남도 공주시 우성면 용봉입동로 498,128,49,윤석규,041-840-2836,126.99044091,36.46401583
충청남도,공주시,학교,호계초등학교,충청남도 공주시 사곡면 마곡사로 149-12 ,1108,426,조승현,041-840-7435,127.02352179,36.50767419
충청남도,공주시,학교,석송초등학교,충청남도 공주시 정안면 마래섭들길 56,235,90,김이규,041-858-6066,127.11440971,36.56446006
충청남도,공주시,학교,정안초등학교,충청남도 공주시 정안면 정안중앙길 79,926,356,이용자,041-858-6004,127.11677953,36.60225069
충청남도,공주시,학교,상서초등학교,충청남도 공주시 우성면 우성길 137-37 ,270,103,이성종,041-855-0544,127.07767547,36.47930064
충청남도,공주시,학교,귀산초등학교,충청남도 공주시 우성면 귀산길 81-15 ,656,252,장미,041-854-7301,127.11265091,36.50017832
충청남도,보령시,경로당,동대3통 경로당,충청남도 보령시 큰오랏7길 5(동대동),216,83,박종수,010-9401-7506,126.60832559,36.34844982
충청남도,보령시,학교,한내초등학교,충청남도 보령시 보령남로 39(명천동),1042,400,전형진,010-8817-5171,126.60128792,36.34207777
충청남도,보령시,학교,명천초등학교,충청남도 보령시 주공로 119(명천동),962,370,최혜선,010-5294-1552,126.61095144,36.33905797
충청남도,공주시,학교,수촌초등학교,충청남도 공주시 의당면 윗태실길 1-8 ,684,263,정원석,041-852-0069,127.13520601,36.51731021
충청남도,보령시,경로당,독정노인정,충청남도 보령시 독정길 64-1 (죽정동),126,48,나현승,010-4037-8690,126.62150368,36.37693494
충청남도,보령시,마을회관,화산1통 마을회관,충청남도 보령시 화현2길 26-4 (화산동),117,45,조성찬,010-5404-7902,126.62700029,36.36794877
충청남도,보령시,학교,대천동대초등학교,충청남도 보령시 한내로터리길 137-12 (동대동),8614,3313,최세호,010-6470-1420,126.61457884,36.352493
충청남도,보령시,학교,한내여자중학교,충청남도 보령시 옥마로 200(동대동),2992,1150,윤정웅,010-2270-0426,126.62367895,36.348932
충청남도,보령시,"연수,숙박",휴모텔,충청남도 보령시 천변북길 97(대천동),247,86,,041-936-7766,126.59963751,36.34904636
충청남도,보령시,"연수,숙박",하이모텔,충청남도 보령시 원동1길 76(대천동),285,54,,041-931-2252,126.59908779,36.35036311
충청남도,보령시,"연수,숙박",피카소모텔,충청남도 보령시 천변북길 95(대천동),70,50,,,126.60025536,36.35020215
충청남도,보령시,학교,대천고등학교,충청남도 보령시 대고로 58(죽정동),2229,857,강용권,010-4436-2226,126.60494934,36.36578165
충청남도,보령시,학교,대천여자중학교,충청남도 보령시 옥갓티1길 31(대천동),1653,635,김종선,010-8520-2491,126.59339173,36.3548064
충청남도,보령시,마을회관,대천23통 마을회관,충청남도 보령시 관촌2길 6(대천동),108,41,최화진,010-2440-5351,126.59047186,36.35400323
충청남도,보령시,마을회관,대천15통마을회관,충청남도 보령시 구시9길 52(대천동),99,38,나현승,010-4037-8690,126.59069362,36.34663272
충청남도,보령시,"연수,숙박",캐빈모텔,충청남도 보령시 목장2길 17(대천동),228,72,,041-931-8882,126.59854057,36.34923311
경상북도,김천시,관공서,지좌동 주민센터,경상북도 김천시 영남대로 1940(지좌동),1490,573,백정흠,054-421-2432,128.14224352,36.12027925
경상북도,김천시,관공서,평생교육원,경상북도 김천시 공단2길 30-22 (대광동),1592,612,김현이,054-421-2387,128.1371318,36.14375529
경상북도,김천시,관공서,대신동 주민센터,경상북도 김천시 신양1길 22(신음동),1457,560,김현이,054-421-2387,128.11589179,36.13534099
경상북도,김천시,관공서,대곡동 주민센터,경상북도 김천시 부곡길 2(부곡동),1308,503,최지민,054-421-2406,128.08926492,36.12442989
경상북도,김천시,학교,김천서부초등학교,경상북도 김천시 원곡길 8(부곡동),1342,516,최지민,054-421-2406,128.10662152,36.12248099
경상북도,김천시,학교,김천고등학교,경상북도 김천시 송설로 90(부곡동),2072,796,최지민,054-421-2406,128.09311498,36.12231938
경상북도,김천시,학교,김천중학교,경상북도 김천시 송설로 90(부곡동),1028,395,최지민,054-421-2406,128.09311498,36.12231938
충청남도,보령시,경로당,신흑7통 경로당,충청남도 보령시 대천항로 370(신흑동),484,186,이재윤,010-54572346,126.50613294,36.32658154
충청남도,보령시,"연수,숙박",한화리조트,충청남도 보령시 해수욕장3길 11-10 (신흑동),35757,600,010-3781-8284,041-930-8521,126.5197213,36.30486713
충청남도,보령시,학교,대창초등학교,충청남도 보령시 웅천읍 방축길 90-43 ,722,277,장명자,010-2040-2412,126.60595719,36.23183251
충청남도,보령시,학교,"웅천중,고등학교",충청남도 보령시 웅천읍 방축길 87,2223,855,이소영,010-3112-4334,126.60455953,36.2344357
충청남도,보령시,경로당,요암3통 경로당,충청남도 보령시 뒷골길 21-67 (요암동),189,72,이병식,010-9558-7373,126.55330998,36.32086813
충청남도,보령시,학교,충남해양과학고등학교,충청남도 보령시 대천항로 212(신흑동),3304,1270,김순복,010-5435-8314,126.51369584,36.31921001
충청남도,보령시,학교,청파초등학교,충청남도 보령시 대천항로 235(신흑동),723,278,박은진,010-4937-8082,126.51119685,36.31856982
충청남도,보령시,학교,청룡초등학교,충청남도 보령시 대해로 646(신흑동),663,255,김종문,010-6410-1180,126.53819027,36.31912068
전라남도,고흥군,관공서,동강면사무소,전라남도 고흥군 동강면 서민호길 9,440,169,김성섭,061-830-6160,127.33438081,34.77915808
전라남도,고흥군,기타시설,서학정,전라남도 고흥군 동강면 원유둔4길 11-10 ,311,119,,011-209-2731,127.33599216,34.78012312
충청남도,보령시,경로당,궁촌2통 경로당,충청남도 보령시 궁촌3길 37(궁촌동),107,41,문영복,010-5428-1454,126.5948472,36.34189821
충청남도,보령시,"연수,숙박",제우스모텔,충청남도 보령시 터미널길 23-11 (궁촌동),410,124,,041-936-2000,126.58754433,36.34267645
충청남도,보령시,학교,대천여자상업고등학교,충청남도 보령시 여상길 60(내항동),426,163,공광영,010-2026-9278,126.57889421,36.33167035
충청남도,보령시,마을회관,남곡3통 마을회관,충청남도 보령시 남서2길 117(남곡동),364,140,강선근,010-5312-7370,126.55235038,36.33779612
충청남도,보령시,경로당,효자2리경로당,충청남도 보령시 오천면 추도길 19-6 ,70,20,,,126.44616717,36.37998174
충청남도,보령시,경로당,명천3통 경로당,충청남도 보령시 맷독3길 39(명천동),138,53,조계행,010-9520-5726,126.60572604,36.32711159
충청남도,보령시,경로당,명천7통경로당,"충청남도 보령시 보령남로 49-31 (명천동, 명천주공1차아파트)",116,44,김일남,010-3002-7501,126.60208242,36.34098188
충청남도,보령시,"연수,숙박",보령베이스,충청남도 보령시 옥마벚길 10(명천동),32985,200,010-2512-3441,041-939-3701,126.62337553,36.33156697
충청남도,보령시,마을회관,허육도 마을회관,충청남도 보령시 오천면 허육도길 4,65,20,,,126.44445051,36.38228569
충청남도,보령시,마을회관,육도 마을회관,충청남도 보령시 오천면 육도길 2,49,20,,,126.44514316,36.38127496
충청남도,보령시,마을회관,소도마을회관,충청남도 보령시 오천면 소도길 44,53,20,,,126.36136908,36.34176365
충청남도,보령시,경로당,효자1리 경로당,충청남도 보령시 오천면 효자도길 82,70,40,,,126.35160721,36.34883265
전라남도,고흥군,학교,동강초등학교,전라남도 고흥군 동강면 원유둔1길 19,1700,653,김완중,010-3612-9362,127.33253686,34.78226339
전라남도,고흥군,마을회관,원유둔마을회관,전라남도 고흥군 동강면 고흥로 4288-5 ,100,38,신춘호,010-5633-2117,127.33506893,34.78217808
전라남도,고흥군,마을회관,중촌마을회관,전라남도 고흥군 동강면 동강중촌길 44,85,32,박성기,010-9234-0597,127.33045199,34.78150473
충청남도,보령시,마을회관,도청 마을회관,충청남도 보령시 주포면 충서로 3294-7 ,68,26,김부균,010-6205-7373,126.57163056,36.40310973
충청남도,보령시,학교,오천초등학교,충청남도 보령시 오천면 충청수영로 822,180,69,박문경,010-3559-9174,126.5231322,36.43846565
충청남도,보령시,마을회관,교성2리마을회관,충청남도 보령시 오천면 웅포길 5,132,50,안상희,010-5430-4431,126.55807881,36.43636833
충청남도,보령시,마을회관,오포2리마을회관,충청남도 보령시 오천면 오천중앙로 525,136,52,조종호,010-5457-5717,126.52207068,36.40612
충청남도,보령시,학교,관당초등학교,충청남도 보령시 웅천읍 무창포로 309,330,126,김종범,010-6750-3785,126.55793337,36.24622602
충청남도,보령시,학교,보령중학교,충청남도 보령시 주포면 보령읍성길 87-37 ,1051,404,한종희,010-5429-0821,126.59060428,36.41690258
충청남도,보령시,학교,주포초등학교,충청남도 보령시 주포면 보령읍성길 87-22 ,723,278,정수진,010-2968-5949,126.59039525,36.41622977
충청남도,보령시,마을회관,보령1리마을회관,충청남도 보령시 주포면 보령읍성길 86,132,50,이종협,010-4573-7275,126.58979426,36.41546798
전라남도,고흥군,마을회관,운동마을회관,전라남도 고흥군 동강면 운동길 39,100,38,박형수,010-4939-3043,127.34084621,34.81974126
전라남도,고흥군,마을회관,택촌마을회관,전라남도 고흥군 동강면 택촌1길 5,100,38,송기선,010-3624-3161,127.3458326,34.81825575
전라남도,고흥군,마을회관,신촌마을회관,전라남도 고흥군 동강면 순영신촌길 29,97,37,강대호,010-8969-2124,127.34829686,34.82241958
충청남도,보령시,학교,청소초등학교,충청남도 보령시 청소면 청소큰길 225,3644,1401,고덕수,010-3461-0823,126.59232261,36.45142242
충청남도,보령시,기타시설,웅천복지회관,충청남도 보령시 웅천읍 장터2길 15,423,162,김동근,010-2779-2419,126.60147738,36.23263945
충청남도,보령시,학교,웅천초등학교,충청남도 보령시 웅천읍 충서로 1035,418,160,류경숙,010-6426-6187,126.59185064,36.24054427
충청남도,보령시,"연수,숙박",비체팰리스,충청남도 보령시 웅천읍 열린바다1길 78,34064,474,010-3395-2408,041-939-5710,126.53126115,36.23927506
전라남도,고흥군,마을회관,당곡마을회관,전라남도 고흥군 동강면 동강당곡길 106,100,38,송충석,010-5184-2479,127.32882894,34.79501707
전라남도,고흥군,마을회관,쌍암마을회관,전라남도 고흥군 동강면 쌍암길 20,85,32,박상용,010-7633-2174,127.33585758,34.79865592
전라남도,고흥군,마을회관,신정마을회관,전라남도 고흥군 동강면 동강신정길 68,100,38,신장철,010-5277-8379,127.34375218,34.79692945
전라남도,고흥군,마을회관,사서마을회관,전라남도 고흥군 동강면 사서1길 16,100,38,송기열,010-3622-2414,127.3224544,34.7884375
전라남도,고흥군,마을회관,두산마을회관,전라남도 고흥군 동강면 두산길 26,100,38,최종원,011-604-3280,127.32553126,34.78651871
전라남도,고흥군,마을회관,마동마을회관,전라남도 고흥군 동강면 마동안길 59-9 ,100,38,송석래,010-2910-2479,127.29851788,34.78144855
전라남도,고흥군,마을회관,마서마을회관,전라남도 고흥군 동강면 마륜마서길 26,200,76,신승호,011-9929-9941,127.29248338,34.78161591
전라남도,고흥군,마을회관,원등마을회관,전라남도 고흥군 동강면 원등길 17,100,38,송경석,010-3641-6850,127.31327933,34.78237212
전라남도,고흥군,마을회관,장월마을회관,전라남도 고흥군 동강면 죽암로 230,85,32,정정옥,010-3629-2852,127.3560016,34.78861183
전라남도,고흥군,마을회관,관덕마을회관,전라남도 고흥군 동강면 원관덕길 85,107,41,송봉근,010-2651-2817,127.35291835,34.79610023
전라남도,고흥군,기타시설,영학정,전라남도 고흥군 동강면 동강장동길 66-6 ,33,12,,061-833-2587,127.35002161,34.8064571
충청남도,보령시,마을회관,학성3리마을회관,충청남도 보령시 천북면 염생이길 78,113,43,박영섭,010-6433-8873,126.49292271,36.4585736
충청남도,보령시,마을회관,사호2리마을회관,충청남도 보령시 천북면 사호장은로 431-10 ,86,33,조광우,010-2499-7747,126.48882103,36.49044044
충청남도,보령시,학교,낙동초등학교,충청남도 보령시 천북면 천광로 421-6 ,1332,512,김선미,010-2220-1072,126.56521219,36.49417386
충청남도,보령시,마을회관,낙동4리마을회관,충청남도 보령시 천북면 빙도길 148,95,36,김문희,010-2339-3838,126.55440385,36.46290697
충청남도,보령시,경로당,외연도 경로당,충청남도 보령시 오천면 외연도1길 64,60,40,,,126.08415217,36.22794822
충청남도,보령시,학교,천북초등학교,충청남도 보령시 천북면 하궁길 45,826,317,장지윤,010-5426-7410,126.53143477,36.48200205
충청남도,보령시,학교,천북중학교,충청남도 보령시 천북면 천광로 107,710,273,서수용,010-8806-0197,126.53360292,36.48377672
충청남도,보령시,마을회관,학성2리마을회관,충청남도 보령시 천북면 하학로 605,94,36,전창성,010-7182-8944,126.50160987,36.44404838
전라남도,고흥군,마을회관,하송마을회관,전라남도 고흥군 동강면 청송하송길 20,96,36,김희섭,011-9280-3094,127.38240523,34.79910047
전라남도,고흥군,마을회관,상송마을회관,전라남도 고흥군 동강면 동강상송길 12,100,38,오미숙,010-5449-3026,127.37780123,34.80502094
전라남도,고흥군,마을회관,죽림마을회관,전라남도 고흥군 동강면 죽암안길 114,85,32,김창환,010-2721-1422,127.38659757,34.78819709
전라남도,고흥군,마을회관,오수마을회관,전라남도 고흥군 동강면 원오수길 19,100,38,이재현,011-643-5245,127.3668603,34.7890634
전라남도,고흥군,기타시설,후송정,전라남도 고흥군 동강면 세곡3길 26,39,15,,,127.36467762,34.81027652
전라남도,고흥군,마을회관,봉계마을회관,전라남도 고흥군 대서면 안남봉계길 18,370,142,송영석,010-3606-3384,127.28058722,34.7590638
전라남도,고흥군,마을회관,장선마을회관,전라남도 고흥군 대서면 장선길 33,863,331,고국진,010-6263-3469,127.2458673,34.75769379
전라남도,고흥군,마을회관,세곡마을회관,전라남도 고흥군 동강면 세곡2길 3,85,32,송석종,010-3642-7882,127.35661834,34.81301686
전라남도,고흥군,마을회관,화천마을회관,전라남도 고흥군 대서면 화천길 86,597,229,송윤식,011-3608-3401,127.26309896,34.75021647
전라남도,고흥군,마을회관,신흥마을회관,전라남도 고흥군 대서면 남정신흥길 2-2 ,244,93,문길식,010-3788-3765,127.24886307,34.76224852
전라남도,고흥군,마을회관,월등마을회관,전라남도 고흥군 대서면 월등길 60-5 ,1554,597,양정화,010-9450-8516,127.25977,34.7799749
전라남도,고흥군,마을회관,고정마을회관,전라남도 고흥군 대서면 고정길 30-29 ,539,207,송하용,010-4519-9865,127.25572239,34.76505047
충청남도,보령시,경로당,삽시도 경로당,충청남도 보령시 오천면 삽시도1길 124,60,30,,,126.35858817,36.33929538
충청남도,보령시,경로당,장고도리경로당,충청남도 보령시 오천면 장고도2길 77,50,40,,,126.4273045,36.37558149
충청남도,보령시,경로당,녹도경로당,충청남도 보령시 오천면 녹도2길 66,60,30,,,126.26468097,36.27210935
충청남도,보령시,경로당,호도 경로당,충청남도 보령시 오천면 호도길 22,70,30,,,126.25820244,36.30036633
전라남도,고흥군,마을회관,남당마을회관,전라남도 고흥군 대서면 남정남당길 6,212,81,이준섭,010-6695-4280,127.25500303,34.78672393
충청남도,보령시,학교,미산초등.중학교,충청남도 보령시 미산면 판미로 1462-7 ,448,172,신찬숙,010-9566-0346,126.6771833,36.28860199
충청남도,보령시,기타시설,일반주택,충청남도 보령시 오천면 월도길 36,72,20,,,126.44522948,36.38233384
충청남도,보령시,경로당,원산1리 경로당,충청남도 보령시 오천면 원산도1길 14,70,50,,,126.42863713,36.36647761
충청남도,보령시,경로당,고대도 경로당,충청남도 보령시 오천면 고대도2길 6-4 ,50,30,,,126.35784677,36.33839262
전라남도,고흥군,마을회관,장전마을회관,전라남도 고흥군 대서면 남정장전길 11-5 ,442,170,송덕환,010-3629-2852,127.25691447,34.77579678
전라남도,고흥군,마을회관,축동마을회관,전라남도 고흥군 대서면 축동길 56-4 ,169,65,박병환,010-3819-0718,127.26184555,34.77400007
전라남도,고흥군,마을회관,중산마을회관,전라남도 고흥군 대서면 남정중산길 31,708,272,손영옥,010-3070-9560,127.264063,34.769924
전라남도,고흥군,관공서,대서면사무소,전라남도 고흥군 대서면 동서로 460-1 ,1079,415,대서면장,061-830-6190,127.28453683,34.77129107
전라남도,고흥군,교회,대서중앙교회,전라남도 고흥군 대서면 봉두로 592,276,106,,061-833-8232,127.28414938,34.77338063
전라남도,고흥군,마을회관,개명마을회관,전라남도 고흥군 대서면 개명안길 50,384,147,조영래,010-3625-3552,127.27454638,34.77932892
전라남도,고흥군,마을회관,금당마을회관,전라남도 고흥군 대서면 금당길 70-5 ,319,122,송미숙,010-8750-3266,127.28425937,34.77856522
전라남도,고흥군,마을회관,마암마을회관,전라남도 고흥군 대서면 몰바우길 20,938,360,송기익,010-4758-8814,127.27147514,34.77290949
전라남도,고흥군,마을회관,석장마을회관,전라남도 고흥군 대서면 동서로 455-2 ,698,268,박동선,010-8613-3219,127.28494058,34.77095459
전라남도,고흥군,학교,대서초등학교,전라남도 고흥군 대서면 동서로 466,2322,893,나수자,061-834-6780,127.28382272,34.77206897
전라남도,고흥군,마을회관,화장마을회관,전라남도 고흥군 대서면 취령길 32-5 ,403,155,송익환,010-9881-2321,127.27812484,34.76417577
전라남도,고흥군,마을회관,평촌마을회관,전라남도 고흥군 대서면 들마을길 6,575,221,장정모,010-9277-4554,127.28138005,34.76484896
전라남도,고흥군,학교,대서중학교,전라남도 고흥군 대서면 동서로 420,2519,968,,061-833-0678,127.28567228,34.7754076
전라남도,고흥군,마을회관,서호마을회관,전라남도 고흥군 대서면 서호1길 10-3 ,377,145,송성현,010-8624-5976,127.29423384,34.7698769
전라남도,고흥군,마을회관,귀산마을회관,전라남도 고흥군 대서면 귀산길 55,491,188,송하은,010-4484-3319,127.28598334,34.76562357
충청남도,보령시,학교,주산초등학교,충청남도 보령시 주산면 충서로 416,1981,761,최창배,011-340-5935,126.63490288,36.19963847
충청남도,보령시,경로당,금암1리 경로당,충청남도 보령시 주산면 주산벚꽃로 32,99,38,우희열,011-435-0684,126.63524738,36.2023619
충청남도,보령시,마을회관,증산1리 마을회관,충청남도 보령시 주산면 대창증산로 501-13 ,184,70,이원수,010-4765-1892,126.58997325,36.19055876
충청남도,보령시,경로당,동오1리경로당,충청남도 보령시 주산면 동막오상길 101,134,51,강중석,010-67506469,126.64613071,36.23848361
전라남도,고흥군,마을회관,지북마을회관,전라남도 고흥군 두원면 지곡길 35,106,40,정필호,010-3077-4741,127.26496216,34.64349146
전라남도,고흥군,마을회관,학림마을회관,전라남도 고흥군 두원면 학림1길 41,145,55,박부주,010-3611-0415,127.26052569,34.65294489
전라남도,고흥군,마을회관,지남마을회관,전라남도 고흥군 두원면 지남길 150,66,25,정종수,010-8888-4133,127.26415043,34.63681019
전라남도,고흥군,마을회관,송강마을회관,전라남도 고흥군 대서면 송강2길 9,469,180,박점석,010-9203-3551,127.31050163,34.75992555
전라남도,고흥군,마을회관,신촌마을회관,전라남도 고흥군 대서면 송림로 116-5 ,306,117,김일중,010-3622-8204,127.29902814,34.75480078
전라남도,고흥군,마을회관,남양마을회관,전라남도 고흥군 대서면 상남남양길 6,100,38,송방현,010-6688-3563,127.30779955,34.76528756
전라남도,고흥군,마을회관,연강마을회관,전라남도 고흥군 두원면 연강예회길 27,83,31,정지태,010-3731-1062,127.27116693,34.70168105
전라남도,고흥군,경로당,대서면분회경로당,전라남도 고흥군 대서면 동서로 455-13 ,299,115,,010-932-3372,127.28572724,34.77137448
전라남도,고흥군,경로당,대서여경로당,전라남도 고흥군 대서면 동서로 455-11 ,83,31,,010-8633-3249,127.28572724,34.77137448
충청남도,보령시,경로당,창동1리 경로당,충청남도 보령시 남포면 창동3길 42,119,45,임윤식,010-3453-8956,126.60775474,36.31729354
충청남도,보령시,학교,남포중학교,충청남도 보령시 남포면 야동2길 24,500,192,이규동,010-4996-8327,126.59139341,36.29475629
충청남도,보령시,학교,월전초등학교,충청남도 보령시 남포면 곡촌길 11,630,242,이금자,010-5436-2881,126.56819913,36.27166178
충청남도,보령시,학교,주산산업고등학교,충청남도 보령시 주산면 만세운동길 58,1006,386,이경영,010-5505-0483,126.63550981,36.19735411
전라남도,고흥군,마을회관,내당마을회관,전라남도 고흥군 두원면 내당길 144,83,31,신동택,010-3623-4402,127.25989912,34.7007936
전라남도,고흥군,마을회관,송정마을회관,전라남도 고흥군 두원면 두원송정길 59,91,35,송기봉,010-3624-9439,127.27384903,34.70925925
전라남도,고흥군,마을회관,금산마을회관,전라남도 고흥군 두원면 대금중촌길 16-3 ,94,36,금산마을,010-3615-1538,127.25740375,34.68136086
전라남도,고흥군,마을회관,대동마을회관,전라남도 고흥군 두원면 대동길 74,83,31,박두식,010-9623-3098,127.25385928,34.67194322
전라남도,고흥군,마을회관,상촌마을회관,전라남도 고흥군 두원면 매막등길 1,95,36,이광수,010-5456-2124,127.23716907,34.66598473
전라남도,고흥군,교회,풍류교회,전라남도 고흥군 두원면 풍류1길 73,130,50,,,127.23772909,34.66326337
전라남도,고흥군,마을회관,관덕마을회관,전라남도 고흥군 두원면 관덕길 3,84,32,김형윤,010-8615-2178,127.25493527,34.66103788
전라남도,고흥군,마을회관,두곡마을회관,전라남도 고흥군 두원면 두곡안길 14,99,38,박진근,010-4538-4570,127.25335817,34.63833359
전라남도,고흥군,관공서,두원우체국,전라남도 고흥군 두원면 두원로 469,140,53,두원우체국장,,127.27414928,34.64546322
충청남도,보령시,경로당,향천2리 경로당,충청남도 보령시 청라면 향천2길 3,166,63,,,126.63682548,36.37464593
충청남도,보령시,학교,옥계초등학교,충청남도 보령시 청라면 죽성로 681,512,196,황호영,010-9413-3832,126.64540173,36.41210664
충청남도,보령시,경로당,황룡2리 경로당,충청남도 보령시 청라면 사거리길 90-17 ,110,42,,,126.65554914,36.41820821
충청남도,보령시,학교,남포초등학교,충청남도 보령시 남포면 읍성향교길 21,2239,861,박혜연,010-7474-4268,126.60902422,36.30521586
충청남도,아산시,학교,온양고등학교,충청남도 아산시 온천대로 1411(온천동),2138,822,이향재,041-539-1813,126.99509799,36.78384598
충청남도,보령시,마을회관,진죽1리마을회관,충청남도 보령시 청소면 넙티로 5,172,66,한승희,011-9429-3551,126.59014067,36.44480788
충청남도,보령시,학교,청라초등학교,충청남도 보령시 청라면 원모루길 205,793,305,오세집,010-2330-9134,126.67243878,36.39049649
충청남도,보령시,학교,청보초등학교,충청남도 보령시 청라면 대청로 759,817,314,송재열,010-9559-0458,126.65659264,36.38949126
충청남도,보령시,마을회관,신대3리 마을회관,충청남도 보령시 주교면 문화마을길 146,142,54,박정선,010-4007-1368,126.59108907,36.36847905
충청남도,아산시,학교,아산중학교,충청남도 아산시 번영로115번길 21(온천동),2314,890,유옥분,041-545-3173,127.00446587,36.78890858
충청남도,아산시,학교,온양온천초등학교,충청남도 아산시 청운로 90(온천동),11420,4392,한상실,041-544-9830,127.00879622,36.78234124
충청남도,아산시,학교,아산고등학교,충청남도 아산시 번영로115번길 21(온천동),2379,915,백종근,041-542-3171,127.00446587,36.78890858
전라남도,고흥군,마을회관,와룡마을회관,전라남도 고흥군 두원면 와룡길 22-3 ,94,36,박종단,010-3934-0331,127.27980694,34.65799622
전라남도,고흥군,학교,두원초등학교,전라남도 고흥군 두원면 두원로 476-29 ,1550,596,전문주,061-833-3998,127.27504516,34.64710547
충청남도,보령시,마을회관,주교1리 마을회관,충청남도 보령시 주교면 울계2길 18,229,88,안점숙,010-3980-7861,126.56997089,36.39078823
충청남도,보령시,학교,송학초등학교,충청남도 보령시 주교면 토정로 796-52 ,386,148,전응석,010-6752-0955,126.52690888,36.3800389
충청남도,보령시,학교,관창초등학교,충청남도 보령시 주교면 한술1길 17,324,124,장동순,010-4440-1334,126.58262501,36.38546745
충청남도,보령시,학교,보령창미유치원,충청남도 보령시 주교면 토정로 218,1970,757,구본경,010-3930-8532,126.57061983,36.36623363
전라남도,고흥군,마을회관,성두마을회관,전라남도 고흥군 두원면 성두하촌길 4,148,56,송종기,010-6478-4303,127.26453057,34.67582148
전라남도,고흥군,교회,두원중앙교회,전라남도 고흥군 두원면 차수진목길 3-18 ,420,161,,,127.26277308,34.67921875
전라남도,고흥군,마을회관,대전마을회관,전라남도 고흥군 두원면 대전2길 3,94,36,신완우,010-8604-9544,127.26759844,34.70854317
전라남도,고흥군,마을회관,상예마을회관,전라남도 고흥군 두원면 상예길 11,74,28,정회상,010-8870-1956,127.26943493,34.69786804
전라남도,고흥군,마을회관,예회마을회관,전라남도 고흥군 두원면 연강예회길 137,88,33,김영대,010-8610-1196,127.28117541,34.69671516
전라남도,고흥군,마을회관,동신마을회관,전라남도 고흥군 두원면 동신안길 35-8 ,92,35,진용정,010-4745-4105,127.28332035,34.64418977
전라남도,고흥군,마을회관,반송마을회관,전라남도 고흥군 두원면 배신선길 43,99,38,류미옥,010-8827-4518,127.27779814,34.63377394
충청남도,보령시,학교,성주초등학교,충청남도 보령시 성주면 성주초교길 8,1599,615,신미연,010-5428-6011,126.6536518,36.34214915
충청남도,보령시,경로당,성주6리 경로당,충청남도 보령시 성주면 심원계곡로 6-12 ,165,63,김기성,010-8806-0829,126.65090763,36.33591249
충청남도,보령시,학교,개화초등학교,충청남도 보령시 성주면 성주산로 735,726,279,황세정,010-2636-6110,126.65422014,36.3067916
충청남도,보령시,경로당,개화2리 경로당,충청남도 보령시 성주면 함박샛길 4-15 ,119,45,박종윤,,126.65267882,36.3060228
전라남도,고흥군,마을회관,양화마을회관,전라남도 고흥군 영남면 양사양화길 11,50,19,이길호,010-2622-0039,127.46214499,34.59199327
전라남도,고흥군,경로당,사포마을여경로당,전라남도 고흥군 영남면 사포산촌길 7,83,31,정경규,010-3645-5261,127.45387122,34.60281469
전라남도,고흥군,학교,영남초등학교,전라남도 고흥군 영남면 팔영로 1075,1000,384,박현희,010-9720-1095,127.45553806,34.60333108
전라남도,고흥군,마을회관,중대마을회관,전라남도 고흥군 두원면 중대길 68,86,33,송철수,010-4562-5209,127.31203283,34.64457524
전라남도,고흥군,마을회관,운곡마을회관,전라남도 고흥군 두원면 운곡길 37,82,31,신명수,010-8521-5628,127.31587032,34.62813092
전라남도,고흥군,마을회관,금성마을회관,전라남도 고흥군 두원면 금성1길 52-8 ,132,50,송상종,010-9881-4858,127.30640082,34.66076088
전라남도,고흥군,마을회관,신성마을회관,전라남도 고흥군 영남면 우천신성길 5,97,37,마병수,010-3603-9155,127.4704322,34.62266532
전라남도,고흥군,마을회관,우두마을회관,전라남도 고흥군 영남면 우천우두길 6,82,31,정동운,010-3569-3841,127.48921067,34.63078834
전라남도,고흥군,마을회관,남열마을복지회관,전라남도 고흥군 영남면 남열본동2길 24,99,38,강상봉,010-7440-2312,127.47996141,34.58073141
전라남도,고흥군,경로당,남열여경로당,전라남도 고흥군 영남면 남열본동2길 25-18 ,84,32,강상봉,010-7440-2312,127.47922151,34.58099619
전라남도,고흥군,마을회관,우암마을회관,전라남도 고흥군 영남면 우천우암길 18,82,31,강만식,010-8912-7085,127.5022813,34.60937595
충청남도,아산시,경로당,방축2통 경로당,충청남도 아산시 방축로64번길 6-6 (방축동),113,43,김동천,010-8819-1259,126.99425961,36.78174903
충청남도,아산시,경로당,방축1통 경로당,충청남도 아산시 온천대로 1373-5 (방축동),203,78,오문환,011-9404-4140,126.99085404,36.78484745
충청남도,보령시,기타시설,봉성리 복지회관,충청남도 보령시 미산면 봉성길 131,225,86,임인빈,010-5420-8410,126.69397686,36.23872286
충청남도,보령시,마을회관,미산면민회관,충청남도 보령시 미산면 내평봉성길 7,338,130,윤학노,010-4213-8819,126.67691693,36.21067604
전라남도,고흥군,경로당,영남분회경로당,전라남도 고흥군 영남면 사포산촌길 4,115,44,공성일,010-9636-8833,127.4543048,34.60276372
전라남도,고흥군,마을회관,사도마을회관,전라남도 고흥군 영남면 사도진해안길 139,91,35,정원철,010-8604-8012,127.41951533,34.58310119
전라남도,고흥군,마을회관,능정마을회관,전라남도 고흥군 영남면 능정길 24-6 ,52,20,강홍우,010-8614-0438,127.41499393,34.59035162
전라남도,보성군,학교,미력초등학교,전라남도 보성군 미력면 송재로 589,596,180,미력초등학교,,127.08591201,34.79945112
전라남도,보성군,학교,겸백초등학교,전라남도 보성군 겸백면 충의로 2496,722,219,겸백초등학교,,127.15062978,34.83140777
전라남도,보성군,학교,율어초등학교,전라남도 보성군 율어면 율어로 569-14 ,765,232,율어초등학교,,127.18614061,34.87311822
전라남도,고흥군,경로당,우두경로당,전라남도 고흥군 영남면 우천우두길 13,65,25,정동운,010-3569-3841,127.4897454,34.63033139
전라남도,고흥군,학교,백양초등학교,전라남도 고흥군 동일면 우주로 2610,565,217,최성균,061-835-6869,127.46552124,34.50350144
전라남도,고흥군,학교,백양중학교,전라남도 고흥군 동일면 우주로 2582-26 ,670,257,황은정,061-833-7032,127.46552124,34.50350144
전라남도,화순군,경로당,서라2차경로당,전라남도 화순군 화순읍 진각로 181-20 (화순2차 서라아파트),104,40,정차배,,126.98526856,35.06780081
전라남도,화순군,경로당,유창경로당,전라남도 화순군 화순읍 대교로 18(유창허니문맨션),78,30,안영순,,126.9810665,35.06309473
전라남도,화순군,교회,화순읍교회,전라남도 화순군 화순읍 도서관길 16,826,317,김근태,061-374-8033,126.98235523,35.06164807
충청남도,아산시,경로당,실옥4통 경로당,충청남도 아산시 실옥로 189(실옥동),66,25,이상호,010-2426-0603,126.9804667,36.79563441
충청남도,아산시,경로당,실옥3통 경로당,충청남도 아산시 실옥로 96(실옥동),198,76,윤경진,010-5209-6406,126.98892411,36.79029815
충청남도,아산시,경로당,실옥2통 경로당,충청남도 아산시 아산로141번길 22-1 (실옥동),156,60,최윤근,011-433-4693,126.99320124,36.79269156
충청남도,아산시,경로당,실옥1통 경로당,충청남도 아산시 번영로35번길 4(실옥동),198,76,정영숙,010-6435-4154,126.99491938,36.78654208
전라남도,보성군,"공공시설(국·공립도서관, 공립병원, 시·도민회관, 구민회관 주민체육시설, 노인병원, 어린이도서관 등)",웅치면복지회관,전라남도 보성군 웅치면 일림로 999,100,38,,,127.02001939,34.71568476
전라남도,보성군,학교,예당고등학교,전라남도 보성군 득량면 예당길 155-12 ,614,186,예당고등학교,,127.19755944,34.78050153
전라남도,보성군,학교,득량중학교,전라남도 보성군 득량면 역전길 51,262,79,득량중학교,,127.17235186,34.76213621
전라남도,보성군,학교,조성중학교,전라남도 보성군 조성면 조성2길 4-7 ,751,228,조성중학교,,127.24299636,34.80740158
전라남도,보성군,학교,조성초등학교,전라남도 보성군 조성면 조성로 129-7 ,624,189,조성초등학교,,127.24835282,34.80981645
전라남도,화순군,경로당,부영6차경로당,전라남도 화순군 화순읍 광덕로 215(화순 부영아파트),194,74,이재용,,126.99135747,35.06442766
전라남도,화순군,교회,안디옥교회,전라남도 화순군 화순읍 부처샘길 7-11 ,331,127,염태선,,126.99191295,35.06771328
전라남도,보성군,학교,문덕초등학교,전라남도 보성군 문덕면 동소산길 129-10 ,2950,894,문덕초등학교,,127.17489298,34.92001945
충청남도,아산시,경로당,온천8통 경로당,충청남도 아산시 남산로 23(온천동),162,62,심정자,010-5503-8922,126.99649468,36.78179932
충청남도,아산시,"연수,숙박",달성장 여관,충청남도 아산시 온천대로 1531(온천동),120,20,,,127.00789215,36.78078909
충청남도,아산시,학교,온양신정초등학교,충청남도 아산시 온천대로1333번길 29(실옥동),786,302,용승예,041-532-7902,126.98659231,36.78809779
충청남도,아산시,학교,온양신정중학교,충청남도 아산시 온천대로1333번길 31(실옥동),11164,4293,김장영,041-547-3073,126.98739723,36.78859422
전라남도,화순군,마을회관,신기3구 마을회관,전라남도 화순군 화순읍 부처샘길 8-16 ,78,30,최종희,061-375-3951,126.99188784,35.06596561
전라남도,화순군,마을회관,신기리 마을회관,전라남도 화순군 화순읍 도내기길 23,149,57,김영남,,126.98995517,35.06750402
충청남도,아산시,경로당,남산빌라 경로당,"충청남도 아산시 남산로8번길 40-4 (온천동, 남산빌라)",39,15,박동신,011-452-3938,126.99732462,36.77997849
충청남도,아산시,경로당,온천11통 경로당,충청남도 아산시 아산로35번길 15(온천동),93,35,최군자,010-7750-4656,126.9967849,36.7849559
충청남도,아산시,경로당,온천2통 경로당,충청남도 아산시 온화로83번길 3-1 (온천동),148,56,신숙자,010-4582-9687,127.00663435,36.77711263
충청남도,아산시,경로당,온천10통 경로당,충청남도 아산시 온화로29번길 6(온천동),318,122,정태수,010-4422-6241,127.00090876,36.7779841
충청남도,아산시,"연수,숙박",꿈의 궁전 여관,충청남도 아산시 순천향로 826(장존동),700,52,,,127.01367391,36.75615759
충청남도,아산시,경로당,좌부1통 경로당,충청남도 아산시 설화산길 15(좌부동),232,89,서병관,010-5431-4107,127.02525997,36.75834998
충청남도,아산시,학교,온양초등학교,충청남도 아산시 온주길26번길 10(읍내동),6898,2653,김용주,041-544-4821,127.01814173,36.76056927
충청남도,아산시,학교,온양중앙초등학교,충청남도 아산시 중앙로 17(온천동),8331,3204,이은경,041-546-2354,127.00170281,36.77682249
전라남도,화순군,경로당,만연2구경로당,전라남도 화순군 화순읍 중주길 10,37,14,류영석,,126.98795123,35.06214287
전라남도,화순군,경로당,부영5차경로당,전라남도 화순군 화순읍 광덕로 202(화순 부영아파트),70,26,안성례,,126.99359825,35.06269111
전라남도,화순군,경로당,유창2차경로당,전라남도 화순군 화순읍 광덕로 167,27,10,안영순,,126.9918216,35.05958943
전라남도,화순군,경로당,금호(남)경로당,전라남도 화순군 화순읍 광덕로 203(금호타운),75,28,이삼규,,126.99133202,35.06273347
전라남도,화순군,경로당,부영1차경로당,전라남도 화순군 화순읍 광덕로 170(화순 부영아파트),121,46,한선자,,126.9935629,35.05977795
전라남도,화순군,경로당,부영3차경로당,전라남도 화순군 화순읍 중앙로 101,80,30,황예순,,126.99357766,35.06123595
충청남도,아산시,경로당,신인2통 경로당,충청남도 아산시 시민로 107-3 (신인동),99,38,최흥식,010-8810-8945,126.99085741,36.7607487
충청남도,아산시,경로당,법곡2통 경로당,충청남도 아산시 순천향로661번길 16-4 (법곡동),90,34,권오형,011-429-9501,126.99644303,36.75335752
충청남도,아산시,경로당,법곡1통 경로당,충청남도 아산시 법곡길 24(법곡동),169,65,박영운,010-2402-2289,127.01117808,36.76402321
충청남도,아산시,경로당,장존1통 경로당,충청남도 아산시 외암로 1324-7 (장존동),134,51,이동선,010-5430-4450,127.01890071,36.75370004
충청남도,아산시,학교,온양초사초등학교,충청남도 아산시 초사길 122(초사동),232,89,장현주,041-546-9114,126.97373188,36.75120104
충청남도,아산시,경로당,초사1통 경로당,충청남도 아산시 신정로 227(초사동),153,58,방승준,011-9830-9096,126.96915912,36.74453682
충청남도,아산시,경로당,초사2통 경로당,충청남도 아산시 무궁화로52번길 10-2 (초사동),179,68,이종복,011-426-2816,126.98059351,36.74703964
충청남도,아산시,경로당,신인1통 경로당,충청남도 아산시 신인길 2-3 (신인동),60,23,김대군,010-8803-3205,126.98135126,36.75231021
충청남도,아산시,경로당,용화7통 경로당,충청남도 아산시 시민로 297-4 (용화동),169,65,김길수,010-6424-8286,126.99593897,36.77630399
충청남도,아산시,경로당,방축5통 경로당,충청남도 아산시 남부로8번길 36(방축동),155,59,김병학,010-5422-3023,126.98217691,36.76856028
충청남도,아산시,경로당,기산1통 경로당,충청남도 아산시 순천향로402번길 9-10 (기산동),93,35,박완수,010-5262-8796,126.96873258,36.75666519
충청남도,아산시,경로당,기산2통 경로당,충청남도 아산시 신정로293번길 60(기산동),162,62,이홍섭,011-434-6056,126.9608769,36.74887379
충청남도,아산시,경로당,풍기3통 경로당,충청남도 아산시 온천대로1740번길 20(풍기동),144,55,이종은,010-5421-9125,127.02862408,36.77462561
충청남도,아산시,학교,용화고등학교,충청남도 아산시 용화고길 10(용화동),12684,4878,김낙현,041-544-7262,127.00324279,36.77369796
충청남도,아산시,학교,용화초등학교,충청남도 아산시 시민로258번길 3-8 (용화동),794,305,이정관,041-549-7494,126.9959374,36.7735173
충청남도,아산시,경로당,용화2통 경로당,"충청남도 아산시 온여고길 27(온천동, 주공1차아파트)",116,44,임기빈,010-7586-6161,127.01196891,36.77696035
전라남도,화순군,마을회관,만연1구 마을회관,전라남도 화순군 화순읍 천변좌길 87,228,87,최공수,,126.98969031,35.06313127
전라남도,화순군,경로당,금호(여)경로당,전라남도 화순군 화순읍 광덕로 203(금호타운),75,28,오복순,,126.99133202,35.06273347
전라남도,화순군,교회,화순읍 천주교회,전라남도 화순군 화순읍 진각로 88,1091,419,고재영,061-374-6001,126.98577279,35.05964359
전라남도,화순군,교회,화순제일교회,전라남도 화순군 화순읍 중앙로 32,992,381,김광휴,,126.98482483,35.06028918
충청남도,아산시,학교,온양여자중학교,충청남도 아산시 온여고길21번길 22(풍기동),9021,3469,박상순,041-544-3161,127.01422231,36.77717752
충청남도,아산시,학교,온양풍기초등학교,충청남도 아산시 풍기동   200,1000,150,,,127.01905844,36.774592
충청남도,아산시,경로당,풍기2통 경로당,충청남도 아산시 남부로350번길 12(풍기동),167,64,이강호,010-2023-5910,127.02038429,36.77116142
충청남도,아산시,경로당,풍기1통 경로당,충청남도 아산시 어의정로 171-14 (풍기동),194,74,김영기,017-420-9877,127.01563469,36.77561428
충청남도,아산시,경로당,읍내3통 마경로당,충청남도 아산시 온양천길73번길 37-5 (읍내동),84,32,황인상,010-2434-6197,127.02822521,36.76546259
충청남도,아산시,경로당,읍내2통 경로당,충청남도 아산시 온주길16번길 29-1 (읍내동),211,81,최학선,010-423-0476,127.01944319,36.75979783
충청남도,아산시,경로당,읍내1통 경로당,충청남도 아산시 온주길 9(읍내동),258,99,지수기,011-452-8187,127.01699497,36.76155942
충청남도,아산시,학교,온양여자고등학교,충청남도 아산시 온여고길21번길 24(풍기동),2581,992,오선경,041-544-6151,127.01437616,36.77755198
충청남도,아산시,경로당,모종2통 경로당,충청남도 아산시 모종남로 77(모종동),65,25,조성진,010-5432-8851,127.02753986,36.78061419
충청남도,아산시,"연수,숙박",금오모텔,충청남도 아산시 번영로205번길 14-1 (모종동),200,46,박미숙,,127.0144047,36.78566384
충청남도,아산시,"연수,숙박",리오호텔,충청남도 아산시 번영로 205(모종동),200,45,,,127.01350133,36.78493789
충청남도,아산시,"연수,숙박",머루모텔,충청남도 아산시 번영로205번길 16(모종동),300,23,,,127.01425205,36.78579066
충청남도,아산시,경로당,용화14통 경로당,"충청남도 아산시 온중로 6(용화동, 모아미래도아파트)",347,133,유숙희,011-425-0081,126.99775617,36.77126096
충청남도,아산시,학교,온양동신초등학교,충청남도 아산시 번영로234번길 52(모종동),11076,4260,이지은,041-544-6553,127.01767813,36.77970536
충청남도,아산시,경로당,모종1통 경로당,충청남도 아산시 모종북로62번길 22-8 (모종동),164,63,변정섭,010-8805-5337,127.02158093,36.78666112
충청남도,아산시,경로당,모종3통 경로당,충청남도 아산시 삼동로16번길 55-2 (모종동),212,81,민복기,010-3401-1768,127.01665826,36.78058944
충청남도,아산시,경로당,용화6통 경로당,충청남도 아산시 시민로317번길 8-3 (용화동),100,38,김영순,010-2745-4339,126.99605174,36.77842206
충청남도,아산시,경로당,용화8통 경로당,충청남도 아산시 시민로329번길 100(용화동),183,70,신종우,011-450-8844,126.99299736,36.77242479
충청남도,아산시,경로당,용화10통 경로당,"충청남도 아산시 시민로 277-3 (용화동, 주공아파트)",196,75,임종호,016-9557-1277,126.99424646,36.7742649
충청남도,아산시,경로당,용화12통 경로당,"충청남도 아산시 어의정로 46(용화동, 온천마을아파트)",434,166,김윤태,011-421-1210,127.00044206,36.77449879
전라남도,화순군,마을회관,향청리 마을회관,전라남도 화순군 화순읍 진각로 118,161,61,신권준,061-375-2066,126.9861272,35.06169698
전라남도,화순군,교회,화순 중부교회,전라남도 화순군 화순읍 칠충로 146,661,254,고광석,061-374-1004,126.98432955,35.06141503
전라남도,화순군,마을회관,광덕3구 마을회관,전라남도 화순군 화순읍 덕촌길 8-1 ,219,84,최영보,061-374-4800,126.98638775,35.0549469
전라남도,화순군,마을회관,광덕1구 마을회관,전라남도 화순군 화순읍 느릅2길 13,132,50,윤석환,,126.98867695,35.05880309
전라남도,화순군,마을회관,광덕2구 마을회관,전라남도 화순군 화순읍 천변좌길 11,136,52,김정임,061-374-5269,126.98836324,35.05657428
서울특별시,강북구,학교,우이초등학교,서울특별시 강북구 삼양로99길 36(수유동),611,235,,,127.01525191,37.63856226
서울특별시,강북구,학교,미양초등학교,서울특별시 강북구 솔샘로 195(미아동),1161,447,,,127.01375991,37.62128934
서울특별시,강북구,학교,신일중학교,서울특별시 강북구 솔매로49길 20(미아동),2698,1038,,,127.02774674,37.6282123
서울특별시,강북구,학교,유현초등학교,서울특별시 강북구 인수봉로37길 24(수유동),794,305,,,127.01165203,37.63202172
서울특별시,강북구,학교,강북중학교,서울특별시 강북구 한천로150길 67(수유동),543,209,,,127.02616275,37.64493739
서울특별시,강북구,학교,인수초등학교,서울특별시 강북구 인수봉로 269(수유동),764,294,,,127.01031195,37.64279536
서울특별시,강북구,"공공시설(국·공립도서관, 공립병원, 시·도민회관, 구민회관 주민체육시설, 노인병원, 어린이도서관 등)",강북웰빙스포츠센터,서울특별시 강북구 오현로31길 51(번동),1166,448,,,127.03785766,37.63066396
서울특별시,강서구,"공공시설(국·공립도서관, 공립병원, 시·도민회관, 구민회관 주민체육시설, 노인병원, 어린이도서관 등)",방화6종합사회복지관,"서울특별시 강서구 금낭화로23길 25(방화동, 방화6단지아파트)",81,31,심혜수,010-9771-9636,126.81083884,37.57840035
서울특별시,강서구,학교,방원중학교,서울특별시 강서구 금낭화로 268(방화동),1103,424,김진호,010-3298-3303,126.80881387,37.57575811
서울특별시,강서구,학교,삼정초등학교,서울특별시 강서구 금낭화로 222(방화동),540,207,윤영주,010-5658-8522,126.81027829,37.58010429
대전광역시,동구,학교,대전성남초등학교,대전광역시 동구 성남로32번길 5(성남동),860,330,최수희(행정실장),042-625-0052,127.42973942,36.34403314
서울특별시,금천구,기타시설,하누리주간보호센터,서울특별시 금천구 시흥대로2길 57(시흥동),132,50,이미순,,126.90642512,37.43523649
서울특별시,영등포구,학교,서울영원초등학교,서울특별시 영등포구 도영로22길 31(영등포동),590,227,신환철,02-831-6691,126.90233402,37.51071203
대전광역시,중구,학교,대전 중촌초등학교 강당,대전광역시 중구 대종로 684(중촌동),600,230,강은희,042-256-6980,127.41086893,36.34106092
대전광역시,중구,경로당,죽말경로당,대전광역시 중구 목중로70번길 15(중촌동),306,117,안효단,042-253-2744,127.40786317,36.33930413
대전광역시,중구,학교,대전 대전중학교 강당,대전광역시 중구 수도산로 9(대흥동),853,328,박동일,042-250-7878,127.42498135,36.32083623
경기도,광주시,경로당,오포2차 e편한세상 경로당,경기도 광주시 오포읍 신현로 12-37 (오포 e-편한세상),112,43,,,127.14683696,37.35769239
경기도,광주시,마을회관,능평1리마을회관,경기도 광주시 오포읍 수레실길 91-4 ,132,50,,,127.15712298,37.34808146
경기도,광주시,마을회관,능평3리마을회관,경기도 광주시 오포읍 오포로 131-16 ,300,115,,,127.18002685,37.34552503
경기도,광주시,마을회관,신현4리마을회관,경기도 광주시 오포읍 상태길 74-2 ,165,63,,,127.14344983,37.35497089
경기도,광주시,경로당,신현5리현대모닝1차2단지@경로당,경기도 광주시 오포읍 신현로 65-24 (신현리1차현대모닝사이드),72,27,,,127.15535403,37.36317282
경기도,광주시,경로당,신현3리현대모닝2차@경로당,경기도 광주시 오포읍 새말길 93(현대 모닝사이드 2차),115,44,박영길,031-726-0180,127.16125122,37.36775303
경기도,광주시,경로당,신현6리오포e편한세상경로당,경기도 광주시 오포읍 신현로 12-37 (오포 e-편한세상),115,44,,031-711-3072,127.14683696,37.35769239
경기도,광주시,경로당,능평5리현대아파트경로당,경기도 광주시 오포읍 능평로 38(광주오포현대아파트),210,80,,,127.16275569,37.35379536
경기도,광주시,경로당,능평3리 베르빌@경로당,경기도 광주시 오포읍 능평로 193(오포베르빌아파트),151,58,최대룡,031-769-1027,127.17767337,37.34586167
경기도,광주시,경로당,능평리 금강kcc@경로당,경기도 광주시 오포읍 태재로 130(금강KCC아파트),18,6,아파트입주자대표회,,127.16278292,37.35694561
경기도,광주시,마을회관,문형1리마을회관,경기도 광주시 오포읍 봉골길 123,85,32,,010-5336-4168,127.20274266,37.35473396
경기도,광주시,마을회관,지월2리마을회관,경기도 광주시 초월읍 경수길 130,115,45,권선창,010-4757-3009,127.29687905,37.41972114
경기도,광주시,마을회관,지월5리마을회관,경기도 광주시 초월읍 현산로 297,99,38,김선기,031-762-2899,127.29009719,37.41381766
경기도,광주시,마을회관,지월7리마을회관,경기도 광주시 초월읍 경수길 55(해담빌리지),115,44,,,127.29005622,37.41853263
경기도,광주시,경로당,하오향리경로당,경기도 광주시 곤지암읍 가마을길9번길 20,172,66,김재연,010-3688-7410,127.37677378,37.35833708
경기도,광주시,경로당,하열미리경로당,경기도 광주시 곤지암읍 벌열미길 5,99,38,구자원,010-2448-6263,127.36749413,37.35544966
경기도,광주시,경로당,상열미리경로당,경기도 광주시 곤지암읍 열미길 228,139,53,강치구,017-202-8715,127.35389254,37.36796511
경기도,광주시,경로당,신대리경로당,경기도 광주시 곤지암읍 신대길34번길 45,208,80,임광일,010-2382-6180,127.33467822,37.35751077
경기도,광주시,학교,광수중학교,경기도 광주시 퇴촌면 도수길23번길 23,785,301,백혜연,010-3274-8520,127.31975074,37.47320006
경기도,광주시,학교,도수초등학교,경기도 광주시 퇴촌면 도수길 11,835,321,심영진,010-2249-6696,127.31731687,37.47145079
경기도,광주시,마을회관,도수2리 마을회관,경기도 광주시 퇴촌면 도수길 29-11 ,103,39,안교욱 ,010-2670-5513,127.31893155,37.4697688
경기도,광주시,마을회관,산성리마을회관,경기도 광주시 남한산성면 남한산성로 767,197,76,안호명,010-5327-6601,127.18515872,37.47768593
경기도,광주시,마을회관,엄미2리 마을회관,경기도 광주시 남한산성면 엄미길 64,192,74,김영윤,010-5243-7518,127.23424823,37.47437986
경기도,광주시,마을회관,수청2리 마을회관,경기도 광주시 남종면 산수로 2756-19 ,84,32,김덕만,031-763-0713,127.37004669,37.51224497
경기도,광주시,마을회관,삼성2리마을회관,경기도 광주시 남종면 태허정로 437-10 ,264,101,박순남,031-762-5885,127.28114295,37.48303168
경기도,양주시,경로당,유승9단지 경로당,"경기도 양주시 고읍로 118-16 (광사동, 해동마을유승한내들)",66,25,박정숙,,127.08193057,37.79455423
경기도,양주시,경로당,한양3단지 경로당,"경기도 양주시 고읍남로39번길 84(광사동, 해동마을 한양수자인)",172,66,윤은정,,127.07902808,37.78880186
경기도,양주시,마을회관,삼숭1통 마을회관,경기도 양주시 삼숭로 59(삼숭동),251,96,최기동,,127.10141903,37.7993222
경기도,양주시,마을회관,삼숭2통 마을회관,경기도 양주시 어하고개로132번길 72-16 (삼숭동),199,76,고광각,,127.10672522,37.81043961
경기도,양주시,경로당,나래아파트 경로당,"경기도 양주시 부흥로 2162(삼숭동, 나래아파트)",125,48,이용배,,127.09315851,37.80503272
경기도,양주시,경로당,자이2단지 경로당,"경기도 양주시 삼숭로38번길 78-12 (삼숭동, 양주자이아파트)",198,76,김남기,,127.10330097,37.79559768
경기도,양주시,경로당,자이3단지 경로당,"경기도 양주시 삼숭로38번길 55(삼숭동, 양주자이아파트)",222,85,이태교,,127.10487079,37.79785968
경기도,양주시,관공서,회천4동행정복지센터,경기도 양주시 옥정로 397-7 (옥정동),486,186,,,127.09023293,37.83722414
경기도,양주시,학교,칠봉초등학교,경기도 양주시 회정로 156(고암동),396,152,한미선,031-859-2546,127.07034793,37.8379352
경기도,양주시,마을회관,봉양4통마을회관,경기도 양주시 칠봉산로168번길 75(봉양동),228,87,홍광수,,127.0838484,37.85090156
경기도,양주시,마을회관,회암2통 마을회관,경기도 양주시 화합로1597번길 41(회암동),261,100,김성만,,127.08407363,37.84009424
경기도,양주시,마을회관,회암1통 마을회관,경기도 양주시 천보산로100번길 5(회암동),377,145,김소연,,127.0979748,37.84790688
경기도,양주시,학교,천보초등학교,경기도 양주시 옥정동로9가길 31-15 (율정동),900,346,김상훈,031-866-0842,127.09472999,37.83386375
경기도,양주시,마을회관,율정통 마을회관,경기도 양주시 율정로165번길 221-17 (율정동),77,29,김초한,,127.10625936,37.83120595
경기도,양주시,마을회관,방성2리 마을회관,경기도 양주시 백석읍 부흥로1036번길 16-8 ,127,48,유미자,,127.00147356,37.8050644
경기도,양주시,마을회관,방성4리 마을회관,경기도 양주시 백석읍 중앙로93번길 128,184,70,이해섭,,127.00179532,37.78809284
경기도,양주시,경로당,휴먼시아리 경로당,경기도 양주시 백석읍 고릉말로46번길 12(휴먼시아),116,44,남미희,,127.00071477,37.80171436
경기도,양주시,마을회관,방성3리 마을회관,경기도 양주시 백석읍 부흥로1148번길 84-11 ,129,49,연형흠,,127.0047053,37.79482035
경기도,양주시,마을회관,운암2리 마을회관,경기도 양주시 은현면 운하로137번길 71,101,38,한상선,,127.01167558,37.88183552
경기도,양주시,마을회관,일영2리 마을회관,경기도 양주시 장흥면 일영로769번길 19,269,103,김준섭,,126.93298617,37.71082614
경기도,양주시,마을회관,두곡리 마을회관,경기도 양주시 남면 화합로387번길 214,73,28,백운선,,126.97482036,37.86997029
경기도,양주시,마을회관,경신리 마을회관,경기도 양주시 남면 현석로 861-9 ,100,38,송광석,,126.98499723,37.85108212
경기도,포천시,학교,포천고등학교,경기도 포천시 원모루로 40(신읍동),1525,586,오용암,010-9048-5695,127.19189887,37.89231847
경기도,포천시,경로당,신읍3통(중앙)경로당,경기도 포천시 중앙로110번길 4-9 (신읍동),132,50,이순찬,010-7512-2012,127.20379805,37.89677926
경기도,포천시,학교,포천중학교,경기도 포천시 신북면 중앙로207번길 65,1062,408,김재철,010-9026-5684,127.20166131,37.90715924
경기도,포천시,학교,포천여자중학교,경기도 포천시 신북면 중앙로197번길 65,1818,699,최정임,010-6737-2925,127.20042624,37.90522727
경기도,포천시,기타시설,신북체육문화센터,경기도 포천시 신북면 청신로 2129,1792,689,신북면사무소,031-538-4352,127.22583853,37.93528676
경기도,포천시,학교,신북초등학교,경기도 포천시 신북면 청신로 2063,402,154,김은주,010-4053-5881,127.21900014,37.93802647
경기도,포천시,경로당,기산6리경로당,경기도 포천시 일동면 화동로1079번길 6-30 ,68,26,송하영,010-4239-3841,127.3177868,37.96033826
경기도,포천시,관공서,일동면사무소,경기도 포천시 일동면 화동로1099번길 30,816,314,,031-538-4504,127.31735765,37.96128076
경기도,포천시,마을회관,성동5리마을회관,경기도 포천시 영중면 호국로 3113,101,38,이경렬,017-249-8000,127.25104307,38.01948225
경기도,포천시,마을회관,성동2리마을회관,경기도 포천시 영중면 호국로3296번길 19-37 ,100,38,김경회,010-5083-7764,127.26383736,38.03322392
경기도,포천시,마을회관,영평리마을회관,경기도 포천시 영중면 전영로 1374-1 ,108,41,유재환,011-225-6841,127.2116709,38.01696455
경기도,포천시,마을회관,영송리마을회관,경기도 포천시 영중면 전영로1441번길 6-1 ,104,40,정연채,011-474-5368,127.21847173,38.01464062
경기도,포천시,경로당,노곡4리경로당,경기도 포천시 이동면 성장로1100번길 32,101,38,장재원,010-6215-8654,127.3608444,38.01612506
경기도,포천시,경로당,노곡5리경로당,경기도 포천시 이동면 갈골안길 107,126,48,권종현,011-225-1937,127.34950867,38.01277391
경기도,포천시,경로당,노곡1리경로당,경기도 포천시 이동면 성장로1031번길 13,80,30,이순문,017-701-1624,127.35238234,38.01395015
경기도,포천시,학교,영북초등학교,경기도 포천시 영북면 영북로148번길 46,772,296,정문희,010-8610-8605,127.27680776,38.09041119
경기도,포천시,학교,영북고등학교,경기도 포천시 영북면 영북로 136,462,177,강형근,010-8893-8994,127.27647249,38.08642705
경기도,여주시,마을회관,원부리 마을회관,경기도 여주시 점동면 원부로 36,200,6,,,127.635152,37.16058175
경기도,여주시,마을회관,성신2리 마을회관,경기도 여주시 점동면 성주로 636(성자주택),150,40,,,127.66523673,37.16509589
경기도,여주시,마을회관,도리마을회관,경기도 여주시 점동면 도리길 152,99,38,권낭경,031-887-3816,127.70576266,37.22351634
경기도,연천군,학교,군남초중학교,경기도 연천군 군남면 진상17길 46,1261,100,,,127.01593339,38.06729131
경기도,연천군,마을회관,진상1리 마을회관,경기도 연천군 군남면 진상8길 30,196,75,,,127.02027131,38.05945569
경기도,연천군,마을회관,진상2리 마을회관,경기도 연천군 군남면 군남로 188,231,88,,,127.02030322,38.06436056
경기도,연천군,교회,진상교회,경기도 연천군 군남면 진상4길 62,155,59,,,127.02339866,38.06012546
경기도,연천군,마을회관,옥계1리 마을회관,경기도 연천군 군남면 옥계4길 12,255,98,,,127.05434737,38.12236023
경기도,연천군,마을회관,초성1리 마을회관,경기도 연천군 청산면 청신로75번길 14,99,38,,,127.06758355,37.97956449
경기도,연천군,마을회관,초성2리 마을회관,경기도 연천군 청산면 학담로96번길 18,99,38,,,127.07305421,37.99689957
경기도,연천군,마을회관,초성3리 마을회관,경기도 연천군 청산면 학담로 151,82,31,,,127.07349885,38.00229828
경기도,연천군,마을회관,초성4리 마을회관,경기도 연천군 청산면 청신로234번길 12,99,38,,,127.08233569,37.98739274
경기도,연천군,마을회관,대전1리 마을회관,경기도 연천군 청산면 초대로264번길 23,115,44,,,127.084873,38.008405
경기도,연천군,마을회관,두일2리 마을회관,경기도 연천군 백학면 백학로 39,115,44,,,126.9198788,38.03257126
경기도,연천군,교회,백학교회,경기도 연천군 백학면 백두길 47-13 ,231,88,,,126.91582686,38.0351508
경기도,연천군,마을회관,백령1리 마을회관,경기도 연천군 백학면 두백로34번길 39,191,73,,,126.91329684,38.03389641
경기도,연천군,마을회관,백령2리 마을회관,경기도 연천군 백학면 백령로86번길 6-5 ,99,38,,,126.90923357,38.0369747
경기도,연천군,마을회관,원당2리 마을회관,경기도 연천군 장남면 원당로 15,276,106,,,126.8827981,37.97639531
경기도,가평군,마을회관,이천리 마을회관,경기도 가평군 설악면 다락재로267번길 13,75,28,김성현,031-580-2213,127.44660026,37.6638028
경기도,가평군,학교,청평중학교 강당,경기도 가평군 청평면 골안길 7,1840,707,김성현,031-580-2213,127.42216621,37.74264791
경기도,가평군,학교,청평초등학교 강당,경기도 가평군 청평면 잠곡로 27,525,201,김성현,031-580-2213,127.42219576,37.73740367
경기도,가평군,학교,청평고등학교 체육관,경기도 가평군 청평면 강변나루로40번길 23,1359,200,김성현,,127.41606653,37.73098758
경기도,연천군,교회,원당교회,경기도 연천군 장남면 장백로 224,230,88,,,126.88229321,37.980236
강원도,고성군,"연수,숙박",레이크오션,강원도 고성군 토성면 잼버리동로 583-20 ,792,40,장명운,,128.56818691,38.23887928
강원도,고성군,경로당,봉포리경로당,강원도 고성군 토성면 봉포3길 7,184,70,박기섭,010-2010-2545,128.56510932,38.25201481
경상남도,통영시,학교,인평초등학교,경상남도 통영시 평인일주로 91-1 (인평동),873,335,박상열(시설직),055-641-7988,128.39419108,34.84219731
경상남도,통영시,학교,진남초등학교,경상남도 통영시 도남로 38(미수동),964,370,손성곤(행정실),055-643-0761,128.40941097,34.83205098
경상남도,통영시,학교,통영고등학교,경상남도 통영시 도남로 116(봉평동),1309,503,서대진(행정실),055-646-3304,128.41747179,34.82922073
경상남도,통영시,관공서,봉평동주민자치센터,경상남도 통영시 해평1길 33-10 (봉평동),341,131,봉평동장,055-650-3842,128.41455001,34.83270191
경상남도,통영시,학교,벽방초등학교,경상남도 통영시 광도면 안정로 815,1682,646,안종용(시설직),055-649-6053,128.41108925,34.94819021
경상남도,통영시,학교,원량초등학교,경상남도 통영시 욕지면 서촌윗길 171-15 ,732,281,백승진(행정실),055-642-6732,128.26204839,34.63483886
경상남도,통영시,마을회관,불곡마을회관,경상남도 통영시 욕지면 서촌아랫길 62-5 ,152,58,박만철(마을이장),010-4557-5280,128.26530759,34.63236336
경상남도,통영시,마을회관,입석마을회관,경상남도 통영시 욕지면 입석길 16,111,42,정철윤(마을이장),010-4858-9163,128.27178131,34.62793697
경상남도,통영시,마을회관,도동마을회관,경상남도 통영시 욕지면 도동길 104-8 ,70,26,김용숙(마을이장),010-8589-5060,128.2355439,34.64238616
경상남도,통영시,학교,광도초등학교,경상남도 통영시 광도면 노산1길 16,796,306,서일진(시설6급),010-8558-4128,128.40664716,34.90056975
경상남도,통영시,학교,죽림초등학교,경상남도 통영시 광도면 신죽1길 17,546,210,학교장,055-649-6761,128.41683168,34.87657729
경상남도,사천시,마을회관,신도마을회관,경상남도 사천시 신도길 35(늑도동),162,63,김순이,010-9148-1240,128.03038564,34.92705442
경상남도,사천시,학교,삼천포초등학교 신수도분교,경상남도 사천시 신수서길 1-46 (신수동),471,182,"(야간) 진종준, (주간)박명렬",055-835-2622,128.07486729,34.90370625
경상남도,사천시,마을회관,배천마을회관,경상남도 사천시 배천길 7-10 (백천동),86,34,박한수,010-5345-4268,128.06966656,34.99346383
경상남도,사천시,마을회관,제민 마을회관,경상남도 사천시 곤양면 제민1길 5,66,25,한일문,055-853-0473,127.97266817,35.04970913
경상남도,사천시,마을회관,본촌 마을회관,경상남도 사천시 곤양면 가리길 96,135,52,이형규,055-852-2243,127.99675125,35.06450838
경상남도,밀양시,학교,수산초등학교,경상남도 밀양시 하남읍 수산중앙로 59,704,270,수산초등학교장,055-391-2626,128.71238105,35.37611242
경상남도,밀양시,마을회관,칠정회관,경상남도 밀양시 하남읍 백산로 325,296,90,칠정이장,010-2552-4692,128.74929961,35.36845963
경상남도,거제시,기타시설,장승포라온호텔,경상남도 거제시 장승포로 96(장승포동),999,50,김형철,,128.73012116,34.86406839
경상남도,거제시,학교,내곡초등학교,경상남도 거제시 아주2로 112(아주동),825,317,행정실장,055-730-9661,128.67849916,34.87093823
경상남도,거제시,학교,아주초등학교,경상남도 거제시 탑곡로4길 24(아주동),880,338,행정실장,055-682-2801,128.69297898,34.86441263
경상남도,거제시,마을회관,아주 4통 경로당,경상남도 거제시 용소1길 76(아주동),187,71,윤강수,,128.69089023,34.87440317
경상남도,거제시,학교,거제장평중학교,경상남도 거제시 장평4로 40(장평동),837,322,행정실장,055-636-9433,128.60625457,34.88618312
경상남도,거제시,마을회관,와치마을회관,경상남도 거제시 장평3로7길 31-4 (장평동),207,794,,,128.60585773,34.89264668
경상남도,거제시,관공서,장평동주민자치센터,경상남도 거제시 장평3로 10(장평동),4197,1614,,,128.6094591,34.8894307
경상남도,거제시,학교,계룡중학교,경상남도 거제시 고현로14길 37(고현동),682,262,,055-638-5435,128.6286246,34.88540722
경상남도,거제시,학교,동부초등학교,경상남도 거제시 동부면 동부로 27,864,332,행정실장,055-633-2025,128.6100453,34.82067351
경상남도,거제시,관공서,동부면 주민자치센터,경상남도 거제시 동부면 동부로 16,541,208,김현희,010-8627-0620,128.60824481,34.82160237
경상남도,거제시,마을회관,구천마을회관,경상남도 거제시 동부면 구천4길 23,83,31,이화영,,128.63257784,34.81558089
경상남도,거제시,관공서,둔덕면 주민자치센터,경상남도 거제시 둔덕면 하둔길 21,377,145,황용석,010-9176-2371,128.50496413,34.83730008
경상남도,거제시,학교,숭덕초등학교,경상남도 거제시 둔덕면 거제남서로 4720,1222,469,행정실장,070-5084-0603,128.49597364,34.83633996
경상남도,양산시,학교,백동초등학교,경상남도 양산시 백동길 19-24 (소주동),612,235,김종화,055-362-4004,129.15310608,35.40576268
경상남도,양산시,경로당,소남마을경로당,경상남도 양산시 소남1길 14(소주동),43,16,김광정,010-4800-8030,129.16202988,35.41229978
경상남도,양산시,학교,천성초등학교,경상남도 양산시 배움터길 28(평산동),364,140,설현구,055-363-4013,129.14473206,35.37934176
경상남도,양산시,"연수,숙박",대운산자연휴양림,경상남도 양산시 탑골길 270(용당동),774,171,,,129.20318482,35.41817431
경상남도,양산시,"연수,숙박",숲애서,경상남도 양산시 탑골길 248(용당동),1421,120,최규현,,129.2014068,35.41810754
경상남도,양산시,학교,서창초등학교,경상남도 양산시 웅상대로 1362(삼호동),533,205,이종만,055-365-1278,129.1717483,35.41751202
경상남도,양산시,학교,대운초등학교,경상남도 양산시 대운6길 11(삼호동),562,216,김기흥,055-367-9621,129.17375983,35.4087823
강원도,동해시,학교,묵호고등학교 ,강원도 동해시 승지로 37(부곡동),1041,400,학교장,033-535-7503,129.09559167,37.53803563
강원도,동해시,학교,동해해솔학교,강원도 동해시 부곡5길 14(부곡동),330,50,,033-530-3412,129.11024162,37.53775875
강원도,동해시,경로당,부곡경로당,강원도 동해시 부곡복개로 46(부곡동),166,63,경로당회장,033-533-3661,129.10674233,37.53622521
강원도,동해시,경로당,매동경로당,강원도 동해시 가마골길 33(부곡동),80,30,경로당회장,033-535-3806,129.10052486,37.53744469
강원도,동해시,학교,북삼초등학교,강원도 동해시 지양길 77(지흥동),1106,425,학교장,033-521-8240,129.10125876,37.49541345
강원도,동해시,경로당,삼화경로당,강원도 동해시 무릉1길 16(이로동),99,38,경로당회장,033-534-8004,129.06628478,37.48882099
강원도,동해시,경로당,이로경로당,강원도 동해시 월평로 47-1 (이로동),295,113,경로당회장,033-534-7315,129.05591393,37.49322894
강원도,동해시,경로당,어달경로당,강원도 동해시 어달길 19(어달동),122,46,경로당회장,033-532-5687,129.11475339,37.55359868
강원도,동해시,경로당,대진경로당,강원도 동해시 대진항길 21(대진동),104,40,경로당회장,033-534-3100,129.11428661,37.55811468
강원도,동해시,학교,망상초등학교,강원도 동해시 동해대로 6251(망상동),220,84,학교장,033-530-3500,129.09011508,37.5911125
경상남도,함양군,관공서,함양군기관단체청사,경상남도 함양군 함양읍 고운로 34,992,50,,,127.7253467,35.51989841
경상남도,산청군,마을회관,사정마을회관,경상남도 산청군 신등면 신등가회로472번길 40,50,19,마을이장,010-3872-3513,128.03290906,35.40512311
경상남도,거창군,마을회관,갈계마을회관,경상남도 거창군 북상면 치내길 40,97,37,임기성,,127.82019757,35.78022542
경상남도,거창군,마을회관,중산마을회관,경상남도 거창군 북상면 함덫길 7-4 ,73,28,김철수,,127.81289307,35.80110349
경상남도,거창군,마을회관,탑불마을회관,경상남도 거창군 북상면 송계로 870,70,26,임영신,,127.81497401,35.79057274
제주특별자치도,제주시,학교,제일중학교,제주특별자치도 제주시 남광로 33(이도이동),2769,839,,,126.53897162,33.49520215
경상남도,합천군,기타시설,대양면복지회관,경상남도 합천군 대양면 대한로 6,573,220,이주경,055-930-3288,128.1744067,35.51597149
제주특별자치도,제주시,마을회관,동복리사무소,제주특별자치도 제주시 구좌읍 동복로 50-1 ,334,101,,,126.7116061,33.55286045
제주특별자치도,제주시,경로당,덕천리경로당,제주특별자치도 제주시 구좌읍 덕평로 365,99,30,노인회장,,126.77142903,33.50224851
제주특별자치도,제주시,경로당,송당리경로당,제주특별자치도 제주시 구좌읍 중산간동로 2212,203,61,노인회장,,126.77931634,33.47107268
제주특별자치도,제주시,경로당,월정리경로당,제주특별자치도 제주시 구좌읍 월정3길 53-6 ,212,64,노인회장,,126.79468744,33.55622583
제주특별자치도,제주시,마을회관,행원리사무소,제주특별자치도 제주시 구좌읍 행원로7길 18-21 ,392,118,리장,,126.80821124,33.55465976
제주특별자치도,제주시,경로당,하가리경로당,제주특별자치도 제주시 애월읍 하가로 141,200,60,노인회장,,126.35017008,33.4571137
제주특별자치도,제주시,경로당,상가리경로당,제주특별자치도 제주시 애월읍 상가중길 23,223,67,노인회장,,126.34566539,33.44980451
제주특별자치도,제주시,경로당,고내리경로당,제주특별자치도 제주시 애월읍 고내3길 15,156,47,노인회장,,126.33555444,33.46398424
제주특별자치도,제주시,관공서,애월체육관,제주특별자치도 제주시 애월읍 일주서로 6349,3268,990,재해구호담당,064-728-8831,126.33196584,33.46304769
경상북도,영천시,학교,동부초등학교 체육관,경상북도 영천시 호국로 209(조교동),984,378,동부초등학교장,054-333-9739,128.96050063,35.97814011
경상북도,영천시,학교,영천고등학교 체육관,경상북도 영천시 영천고2길 12(야사동),1517,583,영천고등학교장,054-338-3522,128.94480006,35.97285797
경상북도,영천시,학교,포은초등학교 체육관,경상북도 영천시 망정4길 72(야사동),2016,775,포은초등학교장,054-338-4760,128.94988781,35.98024621
경상북도,영천시,학교,중앙초등학교 강당,경상북도 영천시 조양길 71(문내동),1553,597,중앙초등학교장,054-336-6028,128.93211655,35.97166172
전라남도,신안군,학교,흑산초등학교 홍도분교,전라남도 신안군 흑산면 홍도1길 53,560,215,흑산초등학교홍도분교장,061-246-3724,125.19235707,34.6854886
전라남도,신안군,학교,하의초등학교,전라남도 신안군 하의면 안곰실길 33,640,300,하의초등학교장,061-275-4021,126.03658867,34.6000796
전라남도,신안군,학교,신의초등학교,전라남도 신안군 신의면 신의로 710-57 ,411,158,신의초등학교장,061-271-6764,126.09598885,34.58310483
전라남도,신안군,학교,신의중학교,전라남도 신안군 신의면 상서길 94,940,361,신의중학교장,061-271-6567,126.0803917,34.59040552
경상북도,상주시,"공공시설(국·공립도서관, 공립병원, 시·도민회관, 구민회관 주민체육시설, 노인병원, 어린이도서관 등)",실내체육관,경상북도 상주시 북상주로 24-7 (계산동),1104,424,,,128.16284485,36.43242003
전라남도,완도군,"공공시설(국·공립도서관, 공립병원, 시·도민회관, 구민회관 주민체육시설, 노인병원, 어린이도서관 등)",완도군농어민체육센터,전라남도 완도군 완도읍 개포로 111,4000,1200,이성용,061-550-5485,126.74185906,34.31583981
전라남도,완도군,학교,완도수산고등학교,전라남도 완도군 완도읍 장보고대로 141,5117,1968,김성,061-552-2393,126.74508335,34.32296451
전라남도,완도군,학교,중앙초등학교,전라남도 완도군 완도읍 개포로135번길 37,3407,1310,임윤철,061-552-5034,126.73987944,34.32191975
전라남도,완도군,경로당,도남리 경로당,전라남도 완도군 고금면 고금남로 72,72,27,김성수,061-550-6421,126.81786739,34.39246259
전라남도,완도군,경로당,청용리 경로복지센터,전라남도 완도군 고금면 청용1길 34,307,118,김성수,061-550-6421,126.80266949,34.41114814
전라남도,완도군,경로당,회룡리 경로당,전라남도 완도군 고금면 회룡40번길 1,167,64,김성수,061-550-6421,126.78142977,34.38117695
전라남도,완도군,경로당,상정리 경로당,전라남도 완도군 고금면 상정1길 29,103,39,김성수,061-550-6421,126.77847485,34.37188414
전라남도,완도군,경로당,세동리 경로당,전라남도 완도군 고금면 세동길 39-2 ,134,51,김성수,061-550-6421,126.8479224,34.39917641
전라남도,완도군,경로당,덕암리 경로당,전라남도 완도군 고금면 고금로 626,69,26,김성수,061-550-6421,126.80022879,34.39700713
전라남도,완도군,경로당,지리 경로복지센터,전라남도 완도군 청산면 지리2길 6,150,57,양응열,061-550-6511,126.86657987,34.19755262
전라남도,완도군,경로당,모동리 경로당,전라남도 완도군 청산면 대모도길 381-3 ,396,152,양응열,061-550-6511,126.76893136,34.19683705
전라남도,완도군,경로당,예송리 경로복지센터,전라남도 완도군 보길면 예송1길 25-2 ,386,148,김현란,061-550-6631,126.56211081,34.1401978
전라남도,완도군,학교,보길중학교,전라남도 완도군 보길면 보길로 1-2 ,628,241,이두현,061-553-6203,126.561356,34.168049
전라남도,완도군,경로당,보옥리 경로당,전라남도 완도군 보길면 보옥길 8,145,55,김현란,061-550-6631,126.51765318,34.12803746
전라남도,완도군,경로당,로뎀복지관,전라남도 완도군 보길면 정자길 14,206,79,김현란,061-550-6631,126.53141458,34.17212101
전라남도,완도군,경로당,선창리 경로당,전라남도 완도군 보길면 선창2길 31,172,66,김현란,061-550-6631,126.50993914,34.1481214
서울특별시,강북구,학교,번동중학교,서울특별시 강북구 오현로35길 87(번동),845,325,,,127.03676598,37.63194742
서울특별시,강북구,학교,수송중학교,서울특별시 강북구 한천로122길 21(번동),1292,496,,,127.03409948,37.63689617
서울특별시,강북구,학교,번동초등학교,서울특별시 강북구 오현로 204(번동),775,298,,,127.04092729,37.62892477
서울특별시,강북구,학교,오현초등학교,서울특별시 강북구 월계로 221(번동),450,172,,,127.04711178,37.62345654
서울특별시,강북구,학교,삼양초등학교,서울특별시 강북구 삼양로49길 17(미아동),976,375,,,127.01656446,37.62363488
서울특별시,도봉구,학교,북서울중학교,서울특별시 도봉구 도봉로169가길 33(도봉동),1002,385,정미순 실장,,127.04291209,37.68115589
서울특별시,도봉구,학교,도봉중학교,서울특별시 도봉구 마들로 671(도봉동),1140,438,박영길 실장,,127.045671,37.670556
서울특별시,도봉구,학교,서울오봉초등학교,서울특별시 도봉구 시루봉로 285(도봉동),7673,2951,정대영 실장,,127.04035821,37.67166446
서울특별시,도봉구,학교,누원고등학교,서울특별시 도봉구 마들로 849(도봉동),783,301,이희숙 계장,,127.04997617,37.68552696
서울특별시,노원구,학교,수암초등학교,서울특별시 노원구 중계로12길 9(중계동),844,324,김혜경,010-8639-8096,127.08167473,37.64810478
서울특별시,노원구,학교,청계초등학교,서울특별시 노원구 공릉로 431(중계동),1801,692,유창희,010-6212-1305,127.06589872,37.6449882
서울특별시,노원구,학교,원광초등학교,서울특별시 노원구 덕릉로76길 18(중계동),1223,470,신수미,02-951-3359,127.07450684,37.65390585
서울특별시,은평구,학교,수색초등학교,서울특별시 은평구 수색로16길 21(수색동),926,356,정장훈,02-356-1111,126.89556185,37.58503549
서울특별시,은평구,관공서,수색동 주민센터,서울특별시 은평구 수색로 280(수색동),115,44,전주영,02-351-5429,126.89377012,37.58333597
서울특별시,은평구,교회,서문교회,서울특별시 은평구 가좌로10길 10(응암동),198,76,채수영,02-375-0025,126.91673878,37.59161251
서울특별시,서대문구,학교,북가좌초등학교,서울특별시 서대문구 거북골로19길 20(북가좌동),891,342,김길자,,126.90764172,37.57714612
서울특별시,양천구,관공서,해누리타운(양천구청 별관),서울특별시 양천구 목동동로 81(신정동),396,152,,,126.86382049,37.51603547
서울특별시,양천구,관공서,신정4동주민센터,서울특별시 양천구 오목로34길 5(신정동),844,325,,,126.85582389,37.52463985
서울특별시,양천구,경로당,새말어르신사랑방,서울특별시 양천구 목동중앙본로2길 13-11 (목동),133,51,어르신장애인과장,02-2620-3356,126.87011326,37.53979672
서울특별시,양천구,경로당,용왕어르신사랑방,서울특별시 양천구 목동중앙북로24길 1-31 (목동),95,36,어르신장애인과장,02-2620-3356,126.87982025,37.54618671
서울특별시,양천구,경로당,청산어르신사랑방,서울특별시 양천구 목동중앙남로3가길 68(목동),97,37,,,126.86457469,37.53854472
서울특별시,양천구,관공서,목5동주민센터,서울특별시 양천구 목동서로 41(목동),468,180,,,126.88173619,37.5371854
서울특별시,양천구,"공공시설(국·공립도서관, 공립병원, 시·도민회관, 구민회관 주민체육시설, 노인병원, 어린이도서관 등)",서부여성발전센터,서울특별시 양천구 남부순환로 371(신월동),298,115,,02-2620-3661,126.82997904,37.5342434
서울특별시,강서구,학교,염경초등학교,서울특별시 강서구 양천로69길 49(염창동),843,324,조유나,010-8622-1171,126.87123471,37.55477385
서울특별시,강서구,학교,염경중학교,서울특별시 강서구 양천로69길 35(염창동),690,265,송채정,010-5409-9476,126.870684,37.554496
서울특별시,강서구,경로당,염창강변 경로당,서울특별시 강서구 양천로77길 58-25 (염창동),116,44,최순홍,010-5056-2404,126.87585879,37.55156368
서울특별시,강서구,"연수,숙박",JK블라썸 호텔,서울특별시 강서구 양천로65길 41-22 (염창동),8284,672,이재관,010-7663-5582,126.86760914,37.55684224
서울특별시,구로구,학교,구로초등학교,서울특별시 구로구 구로중앙로27나길 9(구로동),1357,522,조현정,,126.88606304,37.49688767
서울특별시,구로구,학교,구로중학교,서울특별시 구로구 구로중앙로 48(구로동),1530,588,최순기,010-9299-8278,126.88682492,37.50053776
서울특별시,구로구,학교,동구로초등학교,서울특별시 구로구 구로중앙로14길 43(구로동),752,289,김숙영,010-8809-7353,126.89253585,37.49481454
서울특별시,구로구,학교,구일중학교,서울특별시 구로구 구일로 90-133 (구로동),865,333,김영철,,126.8737218,37.4950996
서울특별시,구로구,"공공시설(국·공립도서관, 공립병원, 시·도민회관, 구민회관 주민체육시설, 노인병원, 어린이도서관 등)",온수어르신복지관,서울특별시 구로구 부일로9길 111(온수동),258,99,,,126.82328592,37.49667333
서울특별시,구로구,학교,천왕중학교,서울특별시 구로구 천왕로 63(천왕동),754,290,,,121.1698456,36.146513
서울특별시,구로구,학교,서울천왕초등학교,서울특별시 구로구 천왕로1길 11(천왕동),759,292,,,126.83676148,37.48157893
서울특별시,구로구,학교,유한공업고등학교,서울특별시 구로구 경인로 8(항동),858,330,박상준,,126.823975,37.488094
서울특별시,금천구,경로당,두산(아) 경로당,"서울특별시 금천구 가산로 99(가산동, 두산위브아파트)",130,50,이남용,,126.89360247,37.47407899
대전광역시,동구,학교,대전현암초등학교,대전광역시 동구 현암로 19(삼성동),476,183,최병식,042-623-3071,127.42053122,36.34186703
대전광역시,동구,학교,대전동서초등학교,대전광역시 동구 동서대로 1522(삼성동),591,227,한일규,042-630-9000,127.42275894,36.34103131
대전광역시,동구,학교,한밭중학교,대전광역시 동구 태전로 67(삼성동),1790,688,김창권,042-620-3950,127.42566053,36.33572098
대전광역시,동구,학교,대전삼성초등학교,대전광역시 동구 대전로867번길 12(삼성동),324,124,조한창,042-627-9780,127.42875531,36.33676582
대전광역시,동구,학교,계룡디지텍고등학교,대전광역시 동구 소랑길 64(삼성동),956,367,조재우,042-630-6000,127.4341564,36.3373347
강원도,태백시,경로당,교동경로당,강원도 태백시 방터골2길 9(동점동),136,52,서영식,033-582-8111,129.04815071,37.09932661
강원도,속초시,"공공시설(국·공립도서관, 공립병원, 시·도민회관, 구민회관 주민체육시설, 노인병원, 어린이도서관 등)",속초의료원,강원도 속초시 영랑호반길 3(영랑동),330,126,한선화,010-4179-1028,128.58886142,38.21655299
강원도,태백시,경로당,양지경로당,강원도 태백시 양지길 59-23 (장성동),102,39,장정자,033-581-0834,129.02278069,37.10525157
강원도,속초시,경로당,노촌경로당,강원도 속초시 교동로5길 58(교동),148,56,한선화,010-4179-1028,128.58039,38.2043171
강원도,속초시,경로당,청초아파트경로당,"강원도 속초시 먹거리길 17(교동, 속초청초아파트)",37,14,한선화,010-4179-1028,128.5748935,38.1969211
강원도,속초시,경로당,만천경로당,강원도 속초시 만천7길 63(교동),87,33,한선화,010-4179-1028,128.5770623,38.2038055
강원도,속초시,학교,청호초등학교,강원도 속초시 청호로 60(청호동),413,158,한선화,010-4179-1028,128.5979674,38.19556047
경기도,오산시,학교,양산초등학교,경기도 오산시 양산로 448(양산동),733,281,,,127.03215939,37.19695994
경기도,오산시,학교,광성초등학교,경기도 오산시 수목원로 577-18 (세교동),620,238,장윤옥,031-372-4777,127.03973561,37.18413913
경기도,시흥시,"공공시설(국·공립도서관, 공립병원, 시·도민회관, 구민회관 주민체육시설, 노인병원, 어린이도서관 등)",시흥시노인종합복지관,경기도 시흥시 장현능곡로 214(능곡동),3578,1376,시흥시노인복지관장 안은경,031-404-3100,126.813292,37.368619
경기도,시흥시,"공공시설(국·공립도서관, 공립병원, 시·도민회관, 구민회관 주민체육시설, 노인병원, 어린이도서관 등)",국민체육센터,경기도 시흥시 하중로 226(하중동),6537,2514,시흥시시설관리공단 이사장 김병채,031-8084-0103,126.805322,37.391501
경기도,오산시,기타시설,오산스포츠센터,경기도 오산시 경기동로 33(오산동),1215,467,,,127.07573352,37.15876892
충청남도,금산군,경로당,두두1리경로당,충청남도 금산군 군북면 헌대길 59,70,26,,,127.52232004,36.16192241
충청남도,금산군,경로당,천을리(노론)경로당,충청남도 금산군 군북면 노론이길 63,67,25,,,127.5320065,36.1642881
충청남도,금산군,경로당,돌모랭이경로당,충청남도 금산군 남일면 돌모랭이길 15,86,33,,,127.5098903,36.00871789
충청남도,금산군,경로당,신천1리경로당,충청남도 금산군 남일면 신천길 58,81,31,,,127.49347082,36.03605738
경상북도,상주시,"연수,숙박",성주봉자연휴양림,경상북도 상주시 은척면 성주봉로 3,1150,229,,,128.0352206,36.53091231
경상북도,상주시,학교,공검초등학교,경상북도 상주시 공검면 공검이안길 27,487,186,,,128.15446832,36.51547899
경상북도,상주시,"공공시설(국·공립도서관, 공립병원, 시·도민회관, 구민회관 주민체육시설, 노인병원, 어린이도서관 등)",공검면민회관,경상북도 상주시 공검면 양정2길 17-1 ,159,61,,,128.15963715,36.51058415
경상북도,상주시,학교,이안초등학교,경상북도 상주시 이안면 양범안룡길 39,576,221,,,128.14462967,36.57885386
경상북도,상주시,마을회관,평온1리 마을회관,경상북도 상주시 화남면 평온동관로 33,72,27,,,127.90663113,36.45067793
경상북도,문경시,경로당,동로면노인회분회관,경상북도 문경시 동로면 노은1길 45-6 ,154,59,임종문,054-552-8006,128.31523204,36.77186598
경상북도,문경시,학교,동성초등학교,경상북도 문경시 마성면 동성길 80,254,97,임혜숙,054-571-9910,128.12674786,36.68260962
경상북도,문경시,경로당,마성면노인회분회관,경상북도 문경시 마성면 문경대로 1760,95,36,임오상,054-571-1364,128.12123009,36.69276194
경상북도,문경시,학교,농암초등학교,경상북도 문경시 농암면 농암길 44-14 ,840,323,공상일,054-571-2295,128.00353616,36.60214474
충청남도,청양군,마을회관,이화리회관,충청남도 청양군 대치면 광승길 11,99,38,나재규,041-940-2434,126.87913826,36.46648203
충청남도,청양군,마을회관,시전리회관,충청남도 청양군 대치면 청산로 690-26 ,99,38,나재규,041-940-2434,126.85089077,36.46675885
충청남도,청양군,마을회관,상갑리회관,충청남도 청양군 대치면 상갑1길 7-4 ,99,38,나재규,041-940-2434,126.87691836,36.49781041
충청남도,청양군,마을회관,수석리회관,충청남도 청양군 대치면 청산로 420,99,38,나재규,041-940-2434,126.82872695,36.47020772
경상북도,경산시,학교,와촌초등학교,경상북도 경산시 와촌면 금송로 460,1054,319,,,128.83728193,35.95031859
경상북도,경산시,학교,대동초등학교,경상북도 경산시 와촌면 팔공로 563-14 ,1554,470,,,128.80367809,35.95934692
경상북도,경산시,학교,자인중학교,경상북도 경산시 자인면 일연로 93,882,267,,,128.82179478,35.81996187
경상북도,경산시,학교,자인초등학교,경상북도 경산시 자인면 금학로 7,1700,515,,,128.82447455,35.82119836
경상북도,경산시,기타시설,계림청소년수련원,경상북도 경산시 자인면 일연로 311-6 ,683,206,,,128.80913247,35.8383904
경상북도,경산시,학교,용성초등학교,경상북도 경산시 용성면 원효로 1405,537,162,,,128.87407969,35.79412752
충청남도,청양군,마을회관,천장리회관,충청남도 청양군 정산면 천장호길 175-11 ,99,38,나재규,041-940-2434,126.91600942,36.40948038
충청남도,청양군,"연수,숙박",알프스마을펜션,충청남도 청양군 정산면 천장호길 230,24,48,041-942-0797,,126.91017609,36.4098155
충청남도,청양군,마을회관,동강리회관,충청남도 청양군 청남면 가경자길 45,70,26,나재규,041-940-2434,126.9696805,36.34462311
충청남도,청양군,교회,천내교회,충청남도 청양군 청남면 금강변로 869-10 ,66,25,나재규,041-940-2434,126.97697849,36.34951529
충청남도,청양군,마을회관,중산리회관,충청남도 청양군 청남면 중뫼안길 72-32 ,99,38,나재규,041-940-2434,126.95388894,36.33888209
충청남도,청양군,마을회관,왕진1리회관,충청남도 청양군 청남면 가늠자길 14-2 ,99,38,나재규,041-940-2434,126.93867606,36.32882908
충청남도,홍성군,학교,광천초등학교,충청남도 홍성군 광천읍 홍남로705번길 16,883,267,,,126.62853801,36.50654171
충청남도,홍성군,학교,금마초등학교,충청남도 홍성군 금마면 광금북로 484,2371,911,김동진,010-9964-3425,126.73238782,36.61398191
전라북도,진안군,학교,마령고등학교 강당,전라북도 진안군 마령면 임진로 2076,770,296,송민영,063-432-4523,127.37231987,35.73210877
전라북도,진안군,학교,마령초등학교 강당,전라북도 진안군 마령면 임진로 2122,712,273,송민영,063-432-6330,127.36981317,35.73567181
전라북도,진안군,관공서,마령면사무소 강당,전라북도 진안군 마령면 솔안2길 8,415,159,이승호,063-430-8322,127.37066082,35.73454962
전라북도,진안군,학교,부귀중학교 강당,전라북도 진안군 부귀면 상거석길 14-7 ,841,323,박관수,063-432-8534,127.36643934,35.83996901
전라북도,진안군,학교,동향초등학교 강당,전라북도 진안군 동향면 하양지1길 5,558,214,김형숙,063-432-6335,127.56624325,35.83946678
전라북도,진안군,관공서,동향면행정복지센터,전라북도 진안군 동향면 진성로 1609,288,110,430-8257,,127.56792277,35.83819282
전라북도,진안군,"공공시설(국·공립도서관, 공립병원, 시·도민회관, 구민회관 주민체육시설, 노인병원, 어린이도서관 등)",상전실내다목적구장,전라북도 진안군 상전면 주평로 41,772,296,최경진,010-9438-3065,127.48659012,35.82253869
전라북도,진안군,관공서,백운면사무소 강당,전라북도 진안군 백운면 임진로 1297,455,175,송준섭,010-430-8282,127.39578398,35.68915807
전라북도,진안군,"연수,숙박",대광수련원,전라북도 진안군 백운면 백장로 147,1106,425,,,127.39993958,35.67002139
전라북도,진안군,기타시설,진안장례식장,전라북도 진안군 진안읍 진무로 1145,652,250,조백환,063-430-7000,127.43151572,35.79503097
전라북도,진안군,관공서,농업기술센터 강당,전라북도 진안군 진안읍 진무로 702-30 ,329,126,김필환,063-430-8615,127.4370596,35.76187563
전라북도,진안군,학교,한방고등학교 강당,전라북도 진안군 진안읍 임진로 2765,1255,482,박세호,063-433-9900,127.37665936,35.77067944
전라북도,무주군,학교,무주 반디유치원,전라북도 무주군 무주읍 무설로 127,107,41,,,127.68804939,36.01258511
전라북도,무주군,학교,무풍중고등학교 본관,전라북도 무주군 무풍면 대덕산로 914,4076,1567,무풍중고등학교장,063-324-4417,127.84651921,35.96678075
전라북도,무주군,학교,무풍초등학교 강당,전라북도 무주군 무풍면 대덕산로 926,2744,1055,무풍초등학교장,063-324-4405,127.84857625,35.96791725
전라북도,장수군,관공서,장수군 농업기술센터,전라북도 장수군 장수읍 와동길 55,968,368,장수군청,,127.51243919,35.62030583
전라북도,장수군,학교,산서초등학교,전라북도 장수군 산서면 동백로 7,259,99,학교장,063-351-4139,127.39478197,35.58694672
전라북도,장수군,경로당,산서면 대표경로당,전라북도 장수군 산서면 보산로 1853-3 ,191,73,장수군,,127.39630847,35.58330622
전라북도,무주군,학교,무주중학교 본관,전라북도 무주군 무주읍 신교로 1,7486,2879,무주중학교장,063-322-2419,127.66471352,36.01070946
전라북도,장수군,"공공시설(국·공립도서관, 공립병원, 시·도민회관, 구민회관 주민체육시설, 노인병원, 어린이도서관 등)",장수군 다목적체육관,전라북도 장수군 장수읍 한누리로 378,2899,1115,,063-350-2882,127.5193969,35.64096097
전라북도,무주군,학교,부남초중학교 본관,전라북도 무주군 부남면 대소길 10,3270,1257,부남초중학교장,063-322-6054,127.55962164,35.97294914
전라북도,무주군,관공서,부남면 주민자치센터 본관,전라북도 무주군 부남면 대소길 3,847,325,부남면장,063-320-5950,127.55880843,35.97382939
경상남도,창원시 의창구,학교,신방초등학교,경상남도 창원시 의창구 동읍 동읍로 121-11 ,6078,2337,윤창일,055-291-3317,128.67827861,35.28692731
경상남도,창원시 의창구,학교,북면초등승산분교,경상남도 창원시 의창구 북면 구룡로312번길 7,920,353,박종일,055-717-5506,128.62805598,35.30402245
경상남도,창원시 의창구,학교,북면초등학교,경상남도 창원시 의창구 북면 동전로110번길 36,700,269,정혜진,055-717-5505,128.59851739,35.31750005
경상남도,창원시 의창구,학교,하천초등학교,경상남도 창원시 의창구 북면 하천로 145,740,284,이영대,055-299-9591,128.60405788,35.36924214
충청남도,당진시,학교,정미초등학교 교실,충청남도 당진시 정미면 운정로 642,2825,1086,이재원,041-350-3642,126.55405389,36.85670369
경상남도,창원시 의창구,"연수,숙박",리베라모텔,경상남도 창원시 의창구 원이대로261번길 39(봉곡동),700,35,허치도,010-3160-2184,128.6511537,35.24489776
경상남도,창원시 의창구,학교,사화초등학교,경상남도 창원시 의창구 반계로80번길 7(팔용동),600,230,홍경태,055-297-6602,128.61648899,35.25230247
경상남도,창원시 의창구,마을회관,무성마을회관,경상남도 창원시 의창구 동읍 무성길47번길 1,128,49,구만수,010-9563-7754,128.6994044,35.28936572
경상남도,창원시 의창구,학교,창덕중학교,경상남도 창원시 의창구 동읍 의창대로900번길 12,1947,748,행정실,055-291-0984,128.68929533,35.27741833
경상남도,창원시,"연수,숙박",그린모텔,경상남도 창원시 의창구 동읍 의창대로 875,640,32,,,128.68620895,35.2786063
충청남도,당진시,학교,순성초등학교 강당,충청남도 당진시 순성면 순성로 473,711,273,박정협,041-350-3642,126.7104562,36.84260074
경상남도,창원시 의창구,경로당,봉촌경로당,경상남도 창원시 의창구 지귀로73번길 8-27 (봉곡동),109,41,황계규,055-288-2968,128.65602104,35.24799107
경상남도,창원시 의창구,기타시설,봉곡평생교육센터,경상남도 창원시 의창구 창이대로165번길 7(봉곡동),294,113,김경주,055-265-6086,128.65518003,35.24475092
경상남도,창원시 의창구,기타시설,봉림청소년문화의집,경상남도 창원시 의창구 창이대로259번길 19(봉곡동),292,112,박세민,055-273-2117,128.66680241,35.24784883
충청남도,당진시,기타시설,신평문화스포츠센터,충청남도 당진시 신평면 말목길 20,2704,1040,이재원,041-350-3642,126.76190595,36.88536378
충청남도,당진시,마을회관,문봉1리 마을회관,충청남도 당진시 면천면 칠거리로 122,249,75,,,126.68378319,36.79852134
충청남도,당진시,학교,순성중학교 체육관,충청남도 당진시 순성면 틀모시로 146,701,269,이재원,041-350-3642,126.70600653,36.85308431
충청남도,당진시,학교,신평초등학교 체육관,충청남도 당진시 신평면 원머리로 7,505,194,이재원,041-350-3642,126.77282558,36.88664161
충청남도,당진시,마을회관,송산1리 마을회관,충청남도 당진시 우강면 은골1길 81,536,206,이재원,041-350-3642,126.76783532,36.81651133
충청남도,당진시,마을회관,신촌리 마을회관,충청남도 당진시 우강면 평야1로 247,298,90,,,126.80595139,36.84714203
충청남도,당진시,학교,우강초등학교 체육관,충청남도 당진시 우강면 우강송산로 183-7 ,500,192,이재원,041-350-3642,126.78844096,36.82462585
충청남도,당진시,"공공시설(국·공립도서관, 공립병원, 시·도민회관, 구민회관 주민체육시설, 노인병원, 어린이도서관 등)",당진남부사회복지관 2층 교육실,충청남도 당진시 우강면 우강창말길 24,660,253,이재원,041-350-3642,126.78781569,36.81349142
충청남도,금산군,경로당,건국여성경로당,충청남도 금산군 금산읍 건삼전3길 13-6 ,75,28,,,127.49193535,36.10226417
충청남도,당진시,학교,북창초등학교,충청남도 당진시 순성면 붉은재길 68,637,193,,,126.76456353,36.85032406
충청남도,금산군,경로당,중도8리경로당,충청남도 금산군 금산읍 약초1길 12-4 ,172,66,,,127.49571704,36.09972991
충청남도,금산군,경로당,중도9리(여성)경로당,충청남도 금산군 금산읍 탑선길 25-6 ,64,24,,,127.49563512,36.10596442
충청남도,금산군,경로당,비호경로당,충청남도 금산군 금산읍 비범1길 20,68,26,,,127.49366806,36.11063414
충청남도,금산군,경로당,낙원아파트경로당,충청남도 금산군 금산읍 약초로 18(낙원아파트),49,18,,,127.49590764,36.09849619
충청남도,금산군,경로당,건국경로당,충청남도 금산군 금산읍 건삼전3길 13-6 ,84,32,,,127.49191473,36.10221071
충청남도,금산군,학교,금산고등학교,충청남도 금산군 금산읍 탑선길 5,561,215,,,127.49595231,36.10696759
충청남도,금산군,경로당,중도7리 경로당,충청남도 금산군 금산읍 비단로 261,73,28,,,127.49390779,36.10875826
충청남도,금산군,경로당,중도1리경로당,충청남도 금산군 금산읍 건삼전1길 20-12 ,86,33,,,127.49235152,36.10054223
충청남도,금산군,경로당,중도3리경로당,충청남도 금산군 금산읍 금산천길 140,136,52,,,127.49487951,36.10110405
충청남도,금산군,경로당,중도9리경로당,충청남도 금산군 금산읍 탑선길 25-6 ,64,24,,,127.49704092,36.10615726
충청남도,금산군,경로당,신대2리경로당,충청남도 금산군 금산읍 상영처길 19-2 ,58,22,,,127.50563584,36.10408778
충청남도,금산군,경로당,신대2리(하영처)경로당,충청남도 금산군 금산읍 하영처길 58,60,23,,,127.51040083,36.10389138
충청남도,금산군,"연수,숙박",윤성파크여관,충청남도 금산군 금산읍 무금로 2299,102,22,,,127.50312,36.09591
충청남도,금산군,학교,금산동초등학교,충청남도 금산군 금산읍 후곤천길 145,6671,2565,,,127.4980326,36.1044509
충청남도,금산군,학교,금산고등학교,충청남도 금산군 금산읍 탑선길 5,8756,3367,,,127.49564069,36.10707144
충청남도,금산군,경로당,신대1리(엄정리)경로당,충청남도 금산군 금산읍 엄나무길 15,70,26,,,127.50364045,36.08805715
충청남도,당진시,학교,유곡초등학교,충청남도 당진시 송산면 송산로 821-17 ,4112,1581,이재원,041-350-3642,126.69387286,36.96050366
충청남도,금산군,경로당,신대1리경로당,충청남도 금산군 금산읍 증티길 6,198,76,,,127.50395307,36.09343857
충청남도,당진시,학교,당산초등학교,충청남도 당진시 송산면 당산2로 185,4226,1281,,,126.64985782,36.936357
충청남도,당진시,기타시설,송산종합사회복지관,충청남도 당진시 송산면 장갈길 15,1900,730,이재원,041-350-3642,126.67929309,36.93477637
충청남도,당진시,학교,서정초등학교 체육관,충청남도 당진시 신평면 거산3거리길 28-1 ,682,262,이재원,041-350-3642,126.75579854,36.88058222
충청남도,당진시,학교,송산초등학교 체육관,충청남도 당진시 송산면 상거길 19-1 ,11395,4382,이재원,041-350-3642,126.67934787,36.93153699
충청남도,금산군,경로당,상5.7여성경로당,충청남도 금산군 금산읍 군청5길 15,68,26,,,127.48531247,36.10943021
충청남도,금산군,경로당,상6리경로당,충청남도 금산군 금산읍 후곤천길 23,85,32,,,127.48507624,36.10723754
충청남도,금산군,경로당,행정동우경로당,충청남도 금산군 금산읍 후곤천길 51,144,55,,,127.48819067,36.1066602
충청남도,금산군,경로당,상1리경로당,충청남도 금산군 금산읍 아인길 53,145,55,,,127.48730863,36.10283747
충청남도,금산군,경로당,9988경로당,충청남도 금산군 금산읍 비선길 71-16 ,140,53,,,127.48955845,36.1021701
충청남도,금산군,경로당,경우경로당,충청남도 금산군 금산읍 금산로 1446,114,43,,,127.48855708,36.10264004
충청남도,금산군,경로당,장수경로당,충청남도 금산군 금산읍 군청5길 15,57,21,,,127.48531247,36.10943021
충청남도,금산군,경로당,금산군삼지회경로당,충청남도 금산군 금산읍 인삼약초1길 6,100,38,,,127.49289661,36.09924695
충청남도,금산군,"공공시설(국·공립도서관, 공립병원, 시·도민회관, 구민회관 주민체육시설, 노인병원, 어린이도서관 등)",금산군 테니스장,충청남도 금산군 금산읍 금산로 1151,2884,1109,,,127.4896072,36.07918423
충청남도,금산군,학교,금산초등학교,충청남도 금산군 금산읍 인삼로 69,7779,2991,,,127.48934886,36.10431703
충청남도,금산군,경로당,하옥4리남산경로당,충청남도 금산군 금산읍 동산길 12,40,15,,,127.49354971,36.0979096
충청남도,금산군,경로당,하옥여성경로당,충청남도 금산군 금산읍 방아동길 45,69,26,,,127.48950492,36.09752271
